[{"Sort": 1, "StateAbbr": "AL", "FIPS": 1001, "County": "Autauga", "CountySeat(s)": "Prattville", "pop": 54571.0, "LandAreakm2": 1539.582, "LandAreami2": 594.436, "WaterAreakm2": 25.776, "WaterAreami2": 9.952, "TotalAreakm2": 1565.358, "TotalAreami2": 604.388, "Latitude": 32.536382, "Longitude": 86.64449, "State": "Alabama"}, {"Sort": 2, "StateAbbr": "AL", "FIPS": 1003, "County": "Baldwin", "CountySeat(s)": "Bay Minette", "pop": 182265.0, "LandAreakm2": 4117.522, "LandAreami2": 1589.784, "WaterAreakm2": 1133.19, "WaterAreami2": 437.527, "TotalAreakm2": 5250.712, "TotalAreami2": 2027.311, "Latitude": 30.659218, "Longitude": 87.74606700000001, "State": "Alabama"}, {"Sort": 3, "StateAbbr": "AL", "FIPS": 1005, "County": "Barbour", "CountySeat(s)": "Clayton", "pop": 27457.0, "LandAreakm2": 2291.819, "LandAreami2": 884.876, "WaterAreakm2": 50.865, "WaterAreami2": 19.639, "TotalAreakm2": 2342.684, "TotalAreami2": 904.515, "Latitude": 31.87067, "Longitude": 85.405456, "State": "Alabama"}, {"Sort": 4, "StateAbbr": "AL", "FIPS": 1007, "County": "Bibb", "CountySeat(s)": "Centreville", "pop": 22915.0, "LandAreakm2": 1612.481, "LandAreami2": 622.582, "WaterAreakm2": 9.289, "WaterAreami2": 3.587, "TotalAreakm2": 1621.77, "TotalAreami2": 626.169, "Latitude": 33.015893, "Longitude": 87.12714799999999, "State": "Alabama"}, {"Sort": 5, "StateAbbr": "AL", "FIPS": 1009, "County": "Blount", "CountySeat(s)": "Oneonta", "pop": 57322.0, "LandAreakm2": 1669.962, "LandAreami2": 644.776, "WaterAreakm2": 15.157, "WaterAreami2": 5.852, "TotalAreakm2": 1685.119, "TotalAreami2": 650.628, "Latitude": 33.977447999999995, "Longitude": 86.567246, "State": "Alabama"}, {"Sort": 6, "StateAbbr": "AL", "FIPS": 1011, "County": "Bullock", "CountySeat(s)": "Union Springs", "pop": 10914.0, "LandAreakm2": 1613.057, "LandAreami2": 622.805, "WaterAreakm2": 6.057, "WaterAreami2": 2.338, "TotalAreakm2": 1619.113, "TotalAreami2": 625.143, "Latitude": 32.101759, "Longitude": 85.717261, "State": "Alabama"}, {"Sort": 7, "StateAbbr": "AL", "FIPS": 1013, "County": "Butler", "CountySeat(s)": "Greenville", "pop": 20947.0, "LandAreakm2": 2011.977, "LandAreami2": 776.829, "WaterAreakm2": 2.727, "WaterAreami2": 1.053, "TotalAreakm2": 2014.704, "TotalAreami2": 777.882, "Latitude": 31.751666999999998, "Longitude": 86.681969, "State": "Alabama"}, {"Sort": 8, "StateAbbr": "AL", "FIPS": 1015, "County": "Calhoun", "CountySeat(s)": "Anniston", "pop": 118572.0, "LandAreakm2": 1569.19, "LandAreami2": 605.868, "WaterAreakm2": 16.624, "WaterAreami2": 6.419, "TotalAreakm2": 1585.814, "TotalAreami2": 612.287, "Latitude": 33.771706, "Longitude": 85.822513, "State": "Alabama"}, {"Sort": 9, "StateAbbr": "AL", "FIPS": 1017, "County": "Chambers", "CountySeat(s)": "Lafayette", "pop": 34215.0, "LandAreakm2": 1545.009, "LandAreami2": 596.531, "WaterAreakm2": 17.048, "WaterAreami2": 6.582, "TotalAreakm2": 1562.057, "TotalAreami2": 603.113, "Latitude": 32.917943, "Longitude": 85.391812, "State": "Alabama"}, {"Sort": 10, "StateAbbr": "AL", "FIPS": 1019, "County": "Cherokee", "CountySeat(s)": "Centre", "pop": 25989.0, "LandAreakm2": 1434.076, "LandAreami2": 553.7, "WaterAreakm2": 119.859, "WaterAreami2": 46.278, "TotalAreakm2": 1553.935, "TotalAreami2": 599.978, "Latitude": 34.069515, "Longitude": 85.65424200000001, "State": "Alabama"}, {"Sort": 11, "StateAbbr": "AL", "FIPS": 1021, "County": "Chilton", "CountySeat(s)": "Clanton", "pop": 43643.0, "LandAreakm2": 1794.484, "LandAreami2": 692.854, "WaterAreakm2": 20.586, "WaterAreami2": 7.948, "TotalAreakm2": 1815.07, "TotalAreami2": 700.802, "Latitude": 32.85406, "Longitude": 86.726628, "State": "Alabama"}, {"Sort": 12, "StateAbbr": "AL", "FIPS": 1023, "County": "Choctaw", "CountySeat(s)": "Butler", "pop": 13859.0, "LandAreakm2": 2365.955, "LandAreami2": 913.5, "WaterAreakm2": 19.059, "WaterAreami2": 7.359, "TotalAreakm2": 2385.014, "TotalAreami2": 920.859, "Latitude": 31.991008, "Longitude": 88.248887, "State": "Alabama"}, {"Sort": 13, "StateAbbr": "AL", "FIPS": 1025, "County": "Clarke", "CountySeat(s)": "Grove Hill", "pop": 25833.0, "LandAreakm2": 3207.609, "LandAreami2": 1238.465, "WaterAreakm2": 36.543, "WaterAreami2": 14.109, "TotalAreakm2": 3244.152, "TotalAreami2": 1252.574, "Latitude": 31.685521, "Longitude": 87.818624, "State": "Alabama"}, {"Sort": 14, "StateAbbr": "AL", "FIPS": 1027, "County": "Clay", "CountySeat(s)": "Ashland", "pop": 13932.0, "LandAreakm2": 1564.252, "LandAreami2": 603.961, "WaterAreakm2": 5.285, "WaterAreami2": 2.04, "TotalAreakm2": 1569.537, "TotalAreami2": 606.001, "Latitude": 33.267809, "Longitude": 85.862051, "State": "Alabama"}, {"Sort": 15, "StateAbbr": "AL", "FIPS": 1029, "County": "Cleburne", "CountySeat(s)": "Heflin", "pop": 14972.0, "LandAreakm2": 1450.653, "LandAreami2": 560.1, "WaterAreakm2": 2.366, "WaterAreami2": 0.913, "TotalAreakm2": 1453.018, "TotalAreami2": 561.013, "Latitude": 33.671981, "Longitude": 85.516109, "State": "Alabama"}, {"Sort": 16, "StateAbbr": "AL", "FIPS": 1031, "County": "Coffee", "CountySeat(s)": "Elba, Enterprise", "pop": 49948.0, "LandAreakm2": 1758.529, "LandAreami2": 678.972, "WaterAreakm2": 3.945, "WaterAreami2": 1.523, "TotalAreakm2": 1762.474, "TotalAreami2": 680.495, "Latitude": 31.402183, "Longitude": 85.989201, "State": "Alabama"}, {"Sort": 17, "StateAbbr": "AL", "FIPS": 1033, "County": "Colbert", "CountySeat(s)": "Tuscumbia", "pop": 54428.0, "LandAreakm2": 1534.877, "LandAreami2": 592.619, "WaterAreakm2": 76.431, "WaterAreami2": 29.51, "TotalAreakm2": 1611.308, "TotalAreami2": 622.129, "Latitude": 34.703112, "Longitude": 87.801457, "State": "Alabama"}, {"Sort": 18, "StateAbbr": "AL", "FIPS": 1035, "County": "Conecuh", "CountySeat(s)": "Evergreen", "pop": 13228.0, "LandAreakm2": 2201.895, "LandAreami2": 850.156, "WaterAreakm2": 6.645, "WaterAreami2": 2.566, "TotalAreakm2": 2208.54, "TotalAreami2": 852.722, "Latitude": 31.428293, "Longitude": 86.992029, "State": "Alabama"}, {"Sort": 19, "StateAbbr": "AL", "FIPS": 1037, "County": "Coosa", "CountySeat(s)": "Rockford", "pop": 11539.0, "LandAreakm2": 1685.891, "LandAreami2": 650.926, "WaterAreakm2": 39.947, "WaterAreami2": 15.423, "TotalAreakm2": 1725.838, "TotalAreami2": 666.349, "Latitude": 32.931445000000004, "Longitude": 86.243482, "State": "Alabama"}, {"Sort": 20, "StateAbbr": "AL", "FIPS": 1039, "County": "Covington", "CountySeat(s)": "Andalusia", "pop": 37765.0, "LandAreakm2": 2668.87, "LandAreami2": 1030.456, "WaterAreakm2": 34.526, "WaterAreami2": 13.331, "TotalAreakm2": 2703.396, "TotalAreami2": 1043.787, "Latitude": 31.243987, "Longitude": 86.44872099999999, "State": "Alabama"}, {"Sort": 21, "StateAbbr": "AL", "FIPS": 1041, "County": "Crenshaw", "CountySeat(s)": "Luverne", "pop": 13906.0, "LandAreakm2": 1576.888, "LandAreami2": 608.84, "WaterAreakm2": 5.376, "WaterAreami2": 2.076, "TotalAreakm2": 1582.264, "TotalAreami2": 610.916, "Latitude": 31.732826, "Longitude": 86.319222, "State": "Alabama"}, {"Sort": 22, "StateAbbr": "AL", "FIPS": 1043, "County": "Cullman", "CountySeat(s)": "Cullman", "pop": 80406.0, "LandAreakm2": 1903.228, "LandAreami2": 734.841, "WaterAreakm2": 52.267, "WaterAreami2": 20.18, "TotalAreakm2": 1955.495, "TotalAreami2": 755.021, "Latitude": 34.131923, "Longitude": 86.86926700000001, "State": "Alabama"}, {"Sort": 23, "StateAbbr": "AL", "FIPS": 1045, "County": "Dale", "CountySeat(s)": "Ozark", "pop": 50251.0, "LandAreakm2": 1453.371, "LandAreami2": 561.15, "WaterAreakm2": 4.016, "WaterAreami2": 1.551, "TotalAreakm2": 1457.388, "TotalAreami2": 562.701, "Latitude": 31.430653999999997, "Longitude": 85.609476, "State": "Alabama"}, {"Sort": 24, "StateAbbr": "AL", "FIPS": 1047, "County": "Dallas", "CountySeat(s)": "Selma", "pop": 43820.0, "LandAreakm2": 2534.807, "LandAreami2": 978.695, "WaterAreakm2": 39.135, "WaterAreami2": 15.11, "TotalAreakm2": 2573.942, "TotalAreami2": 993.805, "Latitude": 32.33354, "Longitude": 87.114356, "State": "Alabama"}, {"Sort": 25, "StateAbbr": "AL", "FIPS": 1049, "County": "DeKalb", "CountySeat(s)": "Fort Payne", "pop": 71109.0, "LandAreakm2": 2012.662, "LandAreami2": 777.093, "WaterAreakm2": 4.124, "WaterAreami2": 1.592, "TotalAreakm2": 2016.786, "TotalAreami2": 778.685, "Latitude": 34.460929, "Longitude": 85.80399200000001, "State": "Alabama"}, {"Sort": 26, "StateAbbr": "AL", "FIPS": 1051, "County": "Elmore", "CountySeat(s)": "Wetumpka", "pop": 79303.0, "LandAreakm2": 1601.868, "LandAreami2": 618.485, "WaterAreakm2": 99.863, "WaterAreami2": 38.557, "TotalAreakm2": 1701.73, "TotalAreami2": 657.042, "Latitude": 32.597229, "Longitude": 86.142739, "State": "Alabama"}, {"Sort": 27, "StateAbbr": "AL", "FIPS": 1053, "County": "Escambia", "CountySeat(s)": "Brewton", "pop": 38319.0, "LandAreakm2": 2447.747, "LandAreami2": 945.08, "WaterAreakm2": 20.873, "WaterAreami2": 8.059, "TotalAreakm2": 2468.62, "TotalAreami2": 953.139, "Latitude": 31.121747999999997, "Longitude": 87.168429, "State": "Alabama"}, {"Sort": 28, "StateAbbr": "AL", "FIPS": 1055, "County": "Etowah", "CountySeat(s)": "Gadsden", "pop": 104430.0, "LandAreakm2": 1385.619, "LandAreami2": 534.991, "WaterAreakm2": 35.323, "WaterAreami2": 13.638, "TotalAreakm2": 1420.942, "TotalAreami2": 548.629, "Latitude": 34.047638, "Longitude": 86.03442, "State": "Alabama"}, {"Sort": 29, "StateAbbr": "AL", "FIPS": 1057, "County": "Fayette", "CountySeat(s)": "Fayette", "pop": 17241.0, "LandAreakm2": 1625.632, "LandAreami2": 627.66, "WaterAreakm2": 4.393, "WaterAreami2": 1.696, "TotalAreakm2": 1630.024, "TotalAreami2": 629.356, "Latitude": 33.732248999999996, "Longitude": 87.752049, "State": "Alabama"}, {"Sort": 30, "StateAbbr": "AL", "FIPS": 1059, "County": "Franklin", "CountySeat(s)": "Russellville", "pop": 31704.0, "LandAreakm2": 1641.588, "LandAreami2": 633.821, "WaterAreakm2": 32.898, "WaterAreami2": 12.702, "TotalAreakm2": 1674.486, "TotalAreami2": 646.523, "Latitude": 34.441988, "Longitude": 87.842815, "State": "Alabama"}, {"Sort": 31, "StateAbbr": "AL", "FIPS": 1061, "County": "Geneva", "CountySeat(s)": "Geneva", "pop": 26790.0, "LandAreakm2": 1487.71, "LandAreami2": 574.408, "WaterAreakm2": 11.765, "WaterAreami2": 4.543, "TotalAreakm2": 1499.476, "TotalAreami2": 578.951, "Latitude": 31.090866, "Longitude": 85.82434599999999, "State": "Alabama"}, {"Sort": 32, "StateAbbr": "AL", "FIPS": 1063, "County": "Greene", "CountySeat(s)": "Eutaw", "pop": 9045.0, "LandAreakm2": 1676.007, "LandAreami2": 647.11, "WaterAreakm2": 33.231, "WaterAreami2": 12.831, "TotalAreakm2": 1709.238, "TotalAreami2": 659.941, "Latitude": 32.844497, "Longitude": 87.964201, "State": "Alabama"}, {"Sort": 33, "StateAbbr": "AL", "FIPS": 1065, "County": "Hale", "CountySeat(s)": "Greensboro", "pop": 15760.0, "LandAreakm2": 1667.804, "LandAreami2": 643.943, "WaterAreakm2": 32.526, "WaterAreami2": 12.558, "TotalAreakm2": 1700.33, "TotalAreami2": 656.501, "Latitude": 32.752796000000004, "Longitude": 87.62306099999999, "State": "Alabama"}, {"Sort": 34, "StateAbbr": "AL", "FIPS": 1067, "County": "Henry", "CountySeat(s)": "Abbeville", "pop": 17302.0, "LandAreakm2": 1454.926, "LandAreami2": 561.75, "WaterAreakm2": 16.987, "WaterAreami2": 6.559, "TotalAreakm2": 1471.913, "TotalAreami2": 568.309, "Latitude": 31.516978, "Longitude": 85.239971, "State": "Alabama"}, {"Sort": 35, "StateAbbr": "AL", "FIPS": 1069, "County": "Houston", "CountySeat(s)": "Dothan", "pop": 101547.0, "LandAreakm2": 1501.738, "LandAreami2": 579.824, "WaterAreakm2": 4.74, "WaterAreami2": 1.83, "TotalAreakm2": 1506.478, "TotalAreami2": 581.654, "Latitude": 31.158193, "Longitude": 85.296398, "State": "Alabama"}, {"Sort": 36, "StateAbbr": "AL", "FIPS": 1071, "County": "Jackson", "CountySeat(s)": "Scottsboro", "pop": 53227.0, "LandAreakm2": 2791.665, "LandAreami2": 1077.868, "WaterAreakm2": 126.657, "WaterAreami2": 48.903, "TotalAreakm2": 2918.322, "TotalAreami2": 1126.771, "Latitude": 34.763521999999995, "Longitude": 85.9774, "State": "Alabama"}, {"Sort": 37, "StateAbbr": "AL", "FIPS": 1073, "County": "Jefferson", "CountySeat(s)": "Birmingham", "pop": 658466.0, "LandAreakm2": 2878.192, "LandAreami2": 1111.276, "WaterAreakm2": 32.474, "WaterAreami2": 12.538, "TotalAreakm2": 2910.667, "TotalAreami2": 1123.814, "Latitude": 33.553444, "Longitude": 86.896536, "State": "Alabama"}, {"Sort": 38, "StateAbbr": "AL", "FIPS": 1075, "County": "Lamar", "CountySeat(s)": "Vernon", "pop": 14564.0, "LandAreakm2": 1566.545, "LandAreami2": 604.846, "WaterAreakm2": 1.601, "WaterAreami2": 0.618, "TotalAreakm2": 1568.145, "TotalAreami2": 605.464, "Latitude": 33.787085, "Longitude": 88.08743100000001, "State": "Alabama"}, {"Sort": 39, "StateAbbr": "AL", "FIPS": 1077, "County": "Lauderdale", "CountySeat(s)": "Florence", "pop": 92709.0, "LandAreakm2": 1729.328, "LandAreami2": 667.697, "WaterAreakm2": 138.027, "WaterAreami2": 53.293, "TotalAreakm2": 1867.355, "TotalAreami2": 720.99, "Latitude": 34.904121999999994, "Longitude": 87.650997, "State": "Alabama"}, {"Sort": 40, "StateAbbr": "AL", "FIPS": 1079, "County": "Lawrence", "CountySeat(s)": "Moulton", "pop": 34339.0, "LandAreakm2": 1788.847, "LandAreami2": 690.678, "WaterAreakm2": 68.688, "WaterAreami2": 26.521, "TotalAreakm2": 1857.535, "TotalAreami2": 717.199, "Latitude": 34.529776, "Longitude": 87.321865, "State": "Alabama"}, {"Sort": 41, "StateAbbr": "AL", "FIPS": 1081, "County": "Lee", "CountySeat(s)": "Opelika", "pop": 140247.0, "LandAreakm2": 1573.511, "LandAreami2": 607.536, "WaterAreakm2": 21.53, "WaterAreami2": 8.313, "TotalAreakm2": 1595.041, "TotalAreami2": 615.849, "Latitude": 32.604064, "Longitude": 85.353048, "State": "Alabama"}, {"Sort": 42, "StateAbbr": "AL", "FIPS": 1083, "County": "Limestone", "CountySeat(s)": "Athens", "pop": 82782.0, "LandAreakm2": 1450.228, "LandAreami2": 559.936, "WaterAreakm2": 122.382, "WaterAreami2": 47.252, "TotalAreakm2": 1572.61, "TotalAreami2": 607.188, "Latitude": 34.810239, "Longitude": 86.9814, "State": "Alabama"}, {"Sort": 43, "StateAbbr": "AL", "FIPS": 1085, "County": "Lowndes", "CountySeat(s)": "Hayneville", "pop": 11299.0, "LandAreakm2": 1854.2, "LandAreami2": 715.911, "WaterAreakm2": 23.724, "WaterAreami2": 9.16, "TotalAreakm2": 1877.923, "TotalAreami2": 725.071, "Latitude": 32.147888, "Longitude": 86.650586, "State": "Alabama"}, {"Sort": 44, "StateAbbr": "AL", "FIPS": 1087, "County": "Macon", "CountySeat(s)": "Tuskegee", "pop": 21452.0, "LandAreakm2": 1577.005, "LandAreami2": 608.885, "WaterAreakm2": 11.194, "WaterAreami2": 4.322, "TotalAreakm2": 1588.199, "TotalAreami2": 613.207, "Latitude": 32.387027, "Longitude": 85.692887, "State": "Alabama"}, {"Sort": 45, "StateAbbr": "AL", "FIPS": 1089, "County": "Madison", "CountySeat(s)": "Huntsville", "pop": 334811.0, "LandAreakm2": 2076.117, "LandAreami2": 801.593, "WaterAreakm2": 28.771, "WaterAreami2": 11.109, "TotalAreakm2": 2104.888, "TotalAreami2": 812.702, "Latitude": 34.764238, "Longitude": 86.55108, "State": "Alabama"}, {"Sort": 46, "StateAbbr": "AL", "FIPS": 1091, "County": "Marengo", "CountySeat(s)": "Linden", "pop": 21027.0, "LandAreakm2": 2530.112, "LandAreami2": 976.882, "WaterAreakm2": 14.995, "WaterAreami2": 5.789, "TotalAreakm2": 2545.107, "TotalAreami2": 982.671, "Latitude": 32.247591, "Longitude": 87.79109100000001, "State": "Alabama"}, {"Sort": 47, "StateAbbr": "AL", "FIPS": 1093, "County": "Marion", "CountySeat(s)": "Hamilton", "pop": 30776.0, "LandAreakm2": 1922.527, "LandAreami2": 742.292, "WaterAreakm2": 3.313, "WaterAreami2": 1.279, "TotalAreakm2": 1925.84, "TotalAreami2": 743.571, "Latitude": 34.138219, "Longitude": 87.881551, "State": "Alabama"}, {"Sort": 48, "StateAbbr": "AL", "FIPS": 1095, "County": "Marshall", "CountySeat(s)": "Guntersville", "pop": 93019.0, "LandAreakm2": 1465.523, "LandAreami2": 565.842, "WaterAreakm2": 148.503, "WaterAreami2": 57.337, "TotalAreakm2": 1614.026, "TotalAreami2": 623.179, "Latitude": 34.309564, "Longitude": 86.321668, "State": "Alabama"}, {"Sort": 49, "StateAbbr": "AL", "FIPS": 1097, "County": "Mobile", "CountySeat(s)": "Mobile", "pop": 412992.0, "LandAreakm2": 3184.223, "LandAreami2": 1229.435, "WaterAreakm2": 1073.751, "WaterAreami2": 414.577, "TotalAreakm2": 4257.974, "TotalAreami2": 1644.012, "Latitude": 30.684572999999997, "Longitude": 88.196568, "State": "Alabama"}, {"Sort": 50, "StateAbbr": "AL", "FIPS": 1099, "County": "Monroe", "CountySeat(s)": "Monroeville", "pop": 23068.0, "LandAreakm2": 2656.485, "LandAreami2": 1025.675, "WaterAreakm2": 22.643, "WaterAreami2": 8.743, "TotalAreakm2": 2679.128, "TotalAreami2": 1034.418, "Latitude": 31.580332000000002, "Longitude": 87.383266, "State": "Alabama"}, {"Sort": 51, "StateAbbr": "AL", "FIPS": 1101, "County": "Montgomery", "CountySeat(s)": "Montgomery", "pop": 229363.0, "LandAreakm2": 2031.191, "LandAreami2": 784.247, "WaterAreakm2": 40.571, "WaterAreami2": 15.665, "TotalAreakm2": 2071.762, "TotalAreami2": 799.912, "Latitude": 32.203651, "Longitude": 86.20383100000001, "State": "Alabama"}, {"Sort": 52, "StateAbbr": "AL", "FIPS": 1103, "County": "Morgan", "CountySeat(s)": "Decatur", "pop": 119490.0, "LandAreakm2": 1500.476, "LandAreami2": 579.337, "WaterAreakm2": 51.065, "WaterAreami2": 19.716, "TotalAreakm2": 1551.541, "TotalAreami2": 599.053, "Latitude": 34.454484, "Longitude": 86.846402, "State": "Alabama"}, {"Sort": 53, "StateAbbr": "AL", "FIPS": 1105, "County": "Perry", "CountySeat(s)": "Marion", "pop": 10591.0, "LandAreakm2": 1863.92, "LandAreami2": 719.664, "WaterAreakm2": 10.919, "WaterAreami2": 4.216, "TotalAreakm2": 1874.839, "TotalAreami2": 723.88, "Latitude": 32.639005, "Longitude": 87.29382700000001, "State": "Alabama"}, {"Sort": 54, "StateAbbr": "AL", "FIPS": 1107, "County": "Pickens", "CountySeat(s)": "Carrollton", "pop": 19746.0, "LandAreakm2": 2282.837, "LandAreami2": 881.408, "WaterAreakm2": 22.578, "WaterAreami2": 8.717, "TotalAreakm2": 2305.415, "TotalAreami2": 890.125, "Latitude": 33.296809, "Longitude": 88.096878, "State": "Alabama"}, {"Sort": 55, "StateAbbr": "AL", "FIPS": 1109, "County": "Pike", "CountySeat(s)": "Troy", "pop": 32899.0, "LandAreakm2": 1740.716, "LandAreami2": 672.094, "WaterAreakm2": 2.363, "WaterAreami2": 0.912, "TotalAreakm2": 1743.078, "TotalAreami2": 673.006, "Latitude": 31.798726000000002, "Longitude": 85.941997, "State": "Alabama"}, {"Sort": 56, "StateAbbr": "AL", "FIPS": 1111, "County": "Randolph", "CountySeat(s)": "Wedowee", "pop": 22913.0, "LandAreakm2": 1503.617, "LandAreami2": 580.55, "WaterAreakm2": 9.285, "WaterAreami2": 3.585, "TotalAreakm2": 1512.902, "TotalAreami2": 584.135, "Latitude": 33.296475, "Longitude": 85.46406800000001, "State": "Alabama"}, {"Sort": 57, "StateAbbr": "AL", "FIPS": 1113, "County": "Russell", "CountySeat(s)": "Phenix City", "pop": 52947.0, "LandAreakm2": 1660.546, "LandAreami2": 641.14, "WaterAreakm2": 15.673, "WaterAreami2": 6.052, "TotalAreakm2": 1676.219, "TotalAreami2": 647.192, "Latitude": 32.289811, "Longitude": 85.18698, "State": "Alabama"}, {"Sort": 58, "StateAbbr": "AL", "FIPS": 1115, "County": "St. Clair", "CountySeat(s)": "Ashville, Pell City", "pop": 83593.0, "LandAreakm2": 1636.619, "LandAreami2": 631.902, "WaterAreakm2": 56.3, "WaterAreami2": 21.738, "TotalAreakm2": 1692.919, "TotalAreami2": 653.64, "Latitude": 33.712963, "Longitude": 86.315663, "State": "Alabama"}, {"Sort": 59, "StateAbbr": "AL", "FIPS": 1117, "County": "Shelby", "CountySeat(s)": "Columbiana", "pop": 195085.0, "LandAreakm2": 2032.96, "LandAreami2": 784.93, "WaterAreakm2": 63.701, "WaterAreami2": 24.595, "TotalAreakm2": 2096.661, "TotalAreami2": 809.525, "Latitude": 33.262937, "Longitude": 86.678104, "State": "Alabama"}, {"Sort": 60, "StateAbbr": "AL", "FIPS": 1119, "County": "Sumter", "CountySeat(s)": "Livingston", "pop": 13763.0, "LandAreakm2": 2341.057, "LandAreami2": 903.887, "WaterAreakm2": 24.436, "WaterAreami2": 9.435, "TotalAreakm2": 2365.494, "TotalAreami2": 913.322, "Latitude": 32.597481, "Longitude": 88.200057, "State": "Alabama"}, {"Sort": 61, "StateAbbr": "AL", "FIPS": 1121, "County": "Talladega", "CountySeat(s)": "Talladega", "pop": 82291.0, "LandAreakm2": 1908.24, "LandAreami2": 736.775, "WaterAreakm2": 60.944, "WaterAreami2": 23.531, "TotalAreakm2": 1969.184, "TotalAreami2": 760.306, "Latitude": 33.369277000000004, "Longitude": 86.17580500000001, "State": "Alabama"}, {"Sort": 62, "StateAbbr": "AL", "FIPS": 1123, "County": "Tallapoosa", "CountySeat(s)": "Dadeville", "pop": 41616.0, "LandAreakm2": 1855.78, "LandAreami2": 716.521, "WaterAreakm2": 128.809, "WaterAreami2": 49.733, "TotalAreakm2": 1984.589, "TotalAreami2": 766.254, "Latitude": 32.863369, "Longitude": 85.799553, "State": "Alabama"}, {"Sort": 63, "StateAbbr": "AL", "FIPS": 1125, "County": "Tuscaloosa", "CountySeat(s)": "Tuscaloosa", "pop": 194656.0, "LandAreakm2": 3423.329, "LandAreami2": 1321.755, "WaterAreakm2": 76.396, "WaterAreami2": 29.497, "TotalAreakm2": 3499.725, "TotalAreami2": 1351.252, "Latitude": 33.290202, "Longitude": 87.52286, "State": "Alabama"}, {"Sort": 64, "StateAbbr": "AL", "FIPS": 1127, "County": "Walker", "CountySeat(s)": "Jasper", "pop": 67023.0, "LandAreakm2": 2049.177, "LandAreami2": 791.192, "WaterAreakm2": 36.264, "WaterAreami2": 14.002, "TotalAreakm2": 2085.441, "TotalAreami2": 805.194, "Latitude": 33.791571000000005, "Longitude": 87.30109200000001, "State": "Alabama"}, {"Sort": 65, "StateAbbr": "AL", "FIPS": 1129, "County": "Washington", "CountySeat(s)": "Chatom", "pop": 17581.0, "LandAreakm2": 2797.722, "LandAreami2": 1080.207, "WaterAreakm2": 21.651, "WaterAreami2": 8.359, "TotalAreakm2": 2819.373, "TotalAreami2": 1088.566, "Latitude": 31.406973999999998, "Longitude": 88.202078, "State": "Alabama"}, {"Sort": 66, "StateAbbr": "AL", "FIPS": 1131, "County": "Wilcox", "CountySeat(s)": "Camden", "pop": 11670.0, "LandAreakm2": 2301.2, "LandAreami2": 888.498, "WaterAreakm2": 48.985, "WaterAreami2": 18.913, "TotalAreakm2": 2350.185, "TotalAreami2": 907.411, "Latitude": 31.99033, "Longitude": 87.302205, "State": "Alabama"}, {"Sort": 67, "StateAbbr": "AL", "FIPS": 1133, "County": "Winston", "CountySeat(s)": "Double Springs", "pop": 24484.0, "LandAreakm2": 1587.608, "LandAreami2": 612.979, "WaterAreakm2": 48.923, "WaterAreami2": 18.889, "TotalAreakm2": 1636.531, "TotalAreami2": 631.868, "Latitude": 34.155888, "Longitude": 87.364147, "State": "Alabama"}, {"Sort": 68, "StateAbbr": "AK", "FIPS": 2013, "County": "Aleutians East", "CountySeat(s)": "Sand Point", "pop": 3141.0, "LandAreakm2": 18083.149, "LandAreami2": 6981.943, "WaterAreakm2": 20792.209, "WaterAreami2": 8027.917, "TotalAreakm2": 38875.358, "TotalAreami2": 15009.86, "Latitude": 55.243722, "Longitude": 161.950749, "State": "Alaska"}, {"Sort": 69, "StateAbbr": "AK", "FIPS": 2016, "County": "Aleutians West ", "CountySeat(s)": "\u2014", "pop": 5561.0, "LandAreakm2": 11370.763, "LandAreami2": 4390.276, "WaterAreakm2": 25190.644, "WaterAreami2": 9726.162, "TotalAreakm2": 36561.406, "TotalAreami2": 14116.438, "Latitude": 51.959447, "Longitude": 178.338813, "State": "Alaska"}, {"Sort": 70, "StateAbbr": "AK", "FIPS": 2020, "County": "Anchorage", "CountySeat(s)": "Anchorage", "pop": 291826.0, "LandAreakm2": 4415.109, "LandAreami2": 1704.683, "WaterAreakm2": 663.861, "WaterAreami2": 256.318, "TotalAreakm2": 5078.97, "TotalAreami2": 1961.001, "Latitude": 61.177549, "Longitude": 149.27435400000002, "State": "Alaska"}, {"Sort": 71, "StateAbbr": "AK", "FIPS": 2050, "County": "Bethel ", "CountySeat(s)": "\u2014", "pop": 17013.0, "LandAreakm2": 105075.823, "LandAreami2": 40570.003, "WaterAreakm2": 12779.524, "WaterAreami2": 4934.202, "TotalAreakm2": 117855.346, "TotalAreami2": 45504.205, "Latitude": 60.928916, "Longitude": 160.15335, "State": "Alaska"}, {"Sort": 72, "StateAbbr": "AK", "FIPS": 2060, "County": "Bristol Bay", "CountySeat(s)": "Naknek", "pop": 997.0, "LandAreakm2": 1304.947, "LandAreami2": 503.843, "WaterAreakm2": 993.83, "WaterAreami2": 383.72, "TotalAreakm2": 2298.777, "TotalAreami2": 887.563, "Latitude": 58.731373, "Longitude": 156.986612, "State": "Alaska"}, {"Sort": 73, "StateAbbr": "AK", "FIPS": 2068, "County": "Denali", "CountySeat(s)": "Healy", "pop": 1826.0, "LandAreakm2": 33026.001, "LandAreami2": 12751.411, "WaterAreakm2": 66.069, "WaterAreami2": 25.509, "TotalAreakm2": 33092.069, "TotalAreami2": 12776.92, "Latitude": 63.682731999999994, "Longitude": 150.02671899999999, "State": "Alaska"}, {"Sort": 74, "StateAbbr": "AK", "FIPS": 2070, "County": "Dillingham ", "CountySeat(s)": "\u2014", "pop": 4847.0, "LandAreakm2": 48092.913, "LandAreami2": 18568.778, "WaterAreakm2": 6077.224, "WaterAreami2": 2346.429, "TotalAreakm2": 54170.136, "TotalAreami2": 20915.207, "Latitude": 59.824816000000006, "Longitude": 158.602233, "State": "Alaska"}, {"Sort": 75, "StateAbbr": "AK", "FIPS": 2090, "County": "Fairbanks North Star", "CountySeat(s)": "Fairbanks", "pop": 97581.0, "LandAreakm2": 19005.874, "LandAreami2": 7338.209, "WaterAreakm2": 273.188, "WaterAreami2": 105.479, "TotalAreakm2": 19279.063, "TotalAreami2": 7443.688, "Latitude": 64.690832, "Longitude": 146.599867, "State": "Alaska"}, {"Sort": 76, "StateAbbr": "AK", "FIPS": 2100, "County": "Haines", "CountySeat(s)": "Haines", "pop": 2508.0, "LandAreakm2": 6005.147, "LandAreami2": 2318.6, "WaterAreakm2": 1053.875, "WaterAreami2": 406.903, "TotalAreakm2": 7059.022, "TotalAreami2": 2725.503, "Latitude": 59.09990500000001, "Longitude": 135.578102, "State": "Alaska"}, {"Sort": 77, "StateAbbr": "AK", "FIPS": 2105, "County": "Hoonah-Angoon ", "CountySeat(s)": "\u2014", "pop": 2150.0, "LandAreakm2": 19489.439, "LandAreami2": 7524.915, "WaterAreakm2": 8778.085, "WaterAreami2": 3389.238, "TotalAreakm2": 28267.524, "TotalAreami2": 10914.153, "Latitude": 58.076434, "Longitude": 135.1851, "State": "Alaska"}, {"Sort": 78, "StateAbbr": "AK", "FIPS": 2110, "County": "Juneau", "CountySeat(s)": "Juneau", "pop": 31275.0, "LandAreakm2": 6997.969, "LandAreami2": 2701.931, "WaterAreakm2": 1429.575, "WaterAreami2": 551.962, "TotalAreakm2": 8427.544, "TotalAreami2": 3253.893, "Latitude": 58.3727, "Longitude": 134.17878100000001, "State": "Alaska"}, {"Sort": 79, "StateAbbr": "AK", "FIPS": 2122, "County": "Kenai Peninsula", "CountySeat(s)": "Soldotna", "pop": 55400.0, "LandAreakm2": 41634.915, "LandAreami2": 16075.331, "WaterAreakm2": 22473.29, "WaterAreami2": 8676.986, "TotalAreakm2": 64108.206, "TotalAreami2": 24752.317, "Latitude": 60.366372999999996, "Longitude": 152.32197299999999, "State": "Alaska"}, {"Sort": 80, "StateAbbr": "AK", "FIPS": 2130, "County": "Ketchikan Gateway", "CountySeat(s)": "Ketchikan", "pop": 13477.0, "LandAreakm2": 12583.233, "LandAreami2": 4858.414, "WaterAreakm2": 4649.414, "WaterAreami2": 1795.149, "TotalAreakm2": 17232.647, "TotalAreami2": 6653.563, "Latitude": 55.449938, "Longitude": 131.106685, "State": "Alaska"}, {"Sort": 81, "StateAbbr": "AK", "FIPS": 2150, "County": "Kodiak Island", "CountySeat(s)": "Kodiak", "pop": 13592.0, "LandAreakm2": 16963.332, "LandAreami2": 6549.579, "WaterAreakm2": 14173.062, "WaterAreami2": 5472.25, "TotalAreakm2": 31136.394, "TotalAreami2": 12021.829, "Latitude": 57.553611, "Longitude": 153.630911, "State": "Alaska"}, {"Sort": 82, "StateAbbr": "AK", "FIPS": 2164, "County": "Lake and Peninsula", "CountySeat(s)": "King Salmon ", "pop": 1631.0, "LandAreakm2": 61258.419, "LandAreami2": 23652.009, "WaterAreakm2": 24010.457, "WaterAreami2": 9270.49, "TotalAreakm2": 85268.877, "TotalAreami2": 32922.499, "Latitude": 58.205065000000005, "Longitude": 156.705188, "State": "Alaska"}, {"Sort": 83, "StateAbbr": "AK", "FIPS": 2170, "County": "Matanuska-Susitna", "CountySeat(s)": "Palmer", "pop": 88995.0, "LandAreakm2": 63734.16, "LandAreami2": 24607.898, "WaterAreakm2": 1682.737, "WaterAreami2": 649.709, "TotalAreakm2": 65416.898, "TotalAreami2": 25257.607, "Latitude": 62.182173999999996, "Longitude": 149.407974, "State": "Alaska"}, {"Sort": 84, "StateAbbr": "AK", "FIPS": 2180, "County": "Nome ", "CountySeat(s)": "\u2014", "pop": 9492.0, "LandAreakm2": 59470.686, "LandAreami2": 22961.761, "WaterAreakm2": 13768.012, "WaterAreami2": 5315.859, "TotalAreakm2": 73238.698, "TotalAreami2": 28277.62, "Latitude": 64.783686, "Longitude": 164.18891200000002, "State": "Alaska"}, {"Sort": 85, "StateAbbr": "AK", "FIPS": 2185, "County": "North Slope", "CountySeat(s)": "Barrow", "pop": 9430.0, "LandAreakm2": 229720.054, "LandAreami2": 88695.413, "WaterAreakm2": 15801.179, "WaterAreami2": 6100.87, "TotalAreakm2": 245521.234, "TotalAreami2": 94796.283, "Latitude": 69.449343, "Longitude": 153.47283000000002, "State": "Alaska"}, {"Sort": 86, "StateAbbr": "AK", "FIPS": 2188, "County": "Northwest Arctic", "CountySeat(s)": "Kotzebue", "pop": 7523.0, "LandAreakm2": 92132.565, "LandAreami2": 35572.584, "WaterAreakm2": 13406.688, "WaterAreami2": 5176.351, "TotalAreakm2": 105539.253, "TotalAreami2": 40748.935, "Latitude": 67.005066, "Longitude": 160.021086, "State": "Alaska"}, {"Sort": 87, "StateAbbr": "AK", "FIPS": 2195, "County": "Petersburg ", "CountySeat(s)": "\u2014", "pop": 3815.0, "LandAreakm2": 8500.294, "LandAreami2": 3281.982, "WaterAreakm2": 6221.368, "WaterAreami2": 2402.084, "TotalAreakm2": 14721.662, "TotalAreami2": 5684.066, "Latitude": 56.639612, "Longitude": 133.527996, "State": "Alaska"}, {"Sort": 88, "StateAbbr": "AK", "FIPS": 2198, "County": "Prince of Wales-Hyder ", "CountySeat(s)": "\u2014", "pop": 5559.0, "LandAreakm2": 10160.194, "LandAreami2": 3922.873, "WaterAreakm2": 9739.418, "WaterAreami2": 3760.411, "TotalAreakm2": 19899.612, "TotalAreami2": 7683.284, "Latitude": 55.415682999999994, "Longitude": 132.875734, "State": "Alaska"}, {"Sort": 89, "StateAbbr": "AK", "FIPS": 2220, "County": "Sitka", "CountySeat(s)": "Sitka", "pop": 8881.0, "LandAreakm2": 7434.144, "LandAreami2": 2870.339, "WaterAreakm2": 5027.404, "WaterAreami2": 1941.092, "TotalAreakm2": 12461.548, "TotalAreami2": 4811.431, "Latitude": 57.142509, "Longitude": 135.332624, "State": "Alaska"}, {"Sort": 90, "StateAbbr": "AK", "FIPS": 2230, "County": "Skagway", "CountySeat(s)": "Skagway", "pop": 968.0, "LandAreakm2": 1171.516, "LandAreami2": 452.325, "WaterAreakm2": 30.331, "WaterAreami2": 11.711, "TotalAreakm2": 1201.847, "TotalAreami2": 464.036, "Latitude": 59.575097, "Longitude": 135.335418, "State": "Alaska"}, {"Sort": 91, "StateAbbr": "AK", "FIPS": 2240, "County": "Southeast Fairbanks ", "CountySeat(s)": "\u2014", "pop": 7029.0, "LandAreakm2": 64150.915, "LandAreami2": 24768.808, "WaterAreakm2": 752.795, "WaterAreami2": 290.656, "TotalAreakm2": 64903.711, "TotalAreami2": 25059.464, "Latitude": 63.864996999999995, "Longitude": 143.218628, "State": "Alaska"}, {"Sort": 92, "StateAbbr": "AK", "FIPS": 2261, "County": "Valdez-Cordova ", "CountySeat(s)": "\u2014", "pop": 9636.0, "LandAreakm2": 88680.877, "LandAreami2": 34239.88, "WaterAreakm2": 15799.69, "WaterAreami2": 6100.295, "TotalAreakm2": 104480.567, "TotalAreami2": 40340.175, "Latitude": 61.34984, "Longitude": 145.02314099999998, "State": "Alaska"}, {"Sort": 93, "StateAbbr": "AK", "FIPS": 2270, "County": "Wade Hampton ", "CountySeat(s)": "\u2014", "pop": 7459.0, "LandAreakm2": 44240.706, "LandAreami2": 17081.433, "WaterAreakm2": 6711.999, "WaterAreami2": 2591.518, "TotalAreakm2": 50952.705, "TotalAreami2": 19672.951, "Latitude": 62.283174, "Longitude": 163.19095, "State": "Alaska"}, {"Sort": 94, "StateAbbr": "AK", "FIPS": 2275, "County": "Wrangell", "CountySeat(s)": "Wrangell", "pop": 2369.0, "LandAreakm2": 6582.411, "LandAreami2": 2541.483, "WaterAreakm2": 2384.276, "WaterAreami2": 920.574, "TotalAreakm2": 8966.687, "TotalAreami2": 3462.057, "Latitude": 56.279120999999996, "Longitude": 132.040326, "State": "Alaska"}, {"Sort": 95, "StateAbbr": "AK", "FIPS": 2282, "County": "Yakutat", "CountySeat(s)": "Yakutat", "pop": 662.0, "LandAreakm2": 19812.002, "LandAreami2": 7649.457, "WaterAreakm2": 4696.71, "WaterAreami2": 1813.41, "TotalAreakm2": 24508.712, "TotalAreami2": 9462.867, "Latitude": 59.999083, "Longitude": 140.23959299999999, "State": "Alaska"}, {"Sort": 96, "StateAbbr": "AK", "FIPS": 2290, "County": "Yukon-Koyukuk ", "CountySeat(s)": "\u2014", "pop": 5588.0, "LandAreakm2": 376855.656, "LandAreami2": 145504.789, "WaterAreakm2": 5956.564, "WaterAreami2": 2299.842, "TotalAreakm2": 382812.22, "TotalAreami2": 147804.631, "Latitude": 65.376131, "Longitude": 151.576855, "State": "Alaska"}, {"Sort": 97, "StateAbbr": "AZ", "FIPS": 4001, "County": "Apache", "CountySeat(s)": "St. Johns", "pop": 71518.0, "LandAreakm2": 29001.444, "LandAreami2": 11197.521, "WaterAreakm2": 54.176, "WaterAreami2": 20.917, "TotalAreakm2": 29055.62, "TotalAreami2": 11218.438, "Latitude": 35.385845, "Longitude": 109.493747, "State": "Arizona"}, {"Sort": 98, "StateAbbr": "AZ", "FIPS": 4003, "County": "Cochise", "CountySeat(s)": "Bisbee", "pop": 131346.0, "LandAreakm2": 15969.064, "LandAreami2": 6165.69, "WaterAreakm2": 137.025, "WaterAreami2": 52.906, "TotalAreakm2": 16106.089, "TotalAreami2": 6218.596, "Latitude": 31.881793, "Longitude": 109.75412, "State": "Arizona"}, {"Sort": 99, "StateAbbr": "AZ", "FIPS": 4005, "County": "Coconino", "CountySeat(s)": "Flagstaff", "pop": 134421.0, "LandAreakm2": 48222.689, "LandAreami2": 18618.885, "WaterAreakm2": 109.964, "WaterAreami2": 42.457, "TotalAreakm2": 48332.653, "TotalAreami2": 18661.342, "Latitude": 35.829692, "Longitude": 111.773728, "State": "Arizona"}, {"Sort": 100, "StateAbbr": "AZ", "FIPS": 4007, "County": "Gila", "CountySeat(s)": "Globe", "pop": 53597.0, "LandAreakm2": 12322.989, "LandAreami2": 4757.933, "WaterAreakm2": 97.112, "WaterAreami2": 37.495, "TotalAreakm2": 12420.101, "TotalAreami2": 4795.428, "Latitude": 33.789618, "Longitude": 110.81187, "State": "Arizona"}, {"Sort": 101, "StateAbbr": "AZ", "FIPS": 4009, "County": "Graham", "CountySeat(s)": "Safford", "pop": 37220.0, "LandAreakm2": 11972.471, "LandAreami2": 4622.597, "WaterAreakm2": 47.834, "WaterAreami2": 18.469, "TotalAreakm2": 12020.305, "TotalAreami2": 4641.066, "Latitude": 32.931828, "Longitude": 109.87831000000001, "State": "Arizona"}, {"Sort": 102, "StateAbbr": "AZ", "FIPS": 4011, "County": "Greenlee", "CountySeat(s)": "Clifton", "pop": 8437.0, "LandAreakm2": 4773.674, "LandAreami2": 1843.126, "WaterAreakm2": 13.745, "WaterAreami2": 5.307, "TotalAreakm2": 4787.419, "TotalAreami2": 1848.433, "Latitude": 33.238872, "Longitude": 109.242323, "State": "Arizona"}, {"Sort": 103, "StateAbbr": "AZ", "FIPS": 4012, "County": "La Paz", "CountySeat(s)": "Parker", "pop": 20489.0, "LandAreakm2": 11653.984, "LandAreami2": 4499.629, "WaterAreakm2": 36.582, "WaterAreami2": 14.124, "TotalAreakm2": 11690.566, "TotalAreami2": 4513.753, "Latitude": 33.727625, "Longitude": 114.038793, "State": "Arizona"}, {"Sort": 104, "StateAbbr": "AZ", "FIPS": 4013, "County": "Maricopa", "CountySeat(s)": "Phoenix", "pop": 3817117.0, "LandAreakm2": 23828.26, "LandAreami2": 9200.143, "WaterAreakm2": 62.796, "WaterAreami2": 24.246, "TotalAreakm2": 23891.056, "TotalAreami2": 9224.389, "Latitude": 33.346540999999995, "Longitude": 112.495534, "State": "Arizona"}, {"Sort": 105, "StateAbbr": "AZ", "FIPS": 4015, "County": "Mohave", "CountySeat(s)": "Kingman", "pop": 200186.0, "LandAreakm2": 34475.547, "LandAreami2": 13311.084, "WaterAreakm2": 387.371, "WaterAreami2": 149.565, "TotalAreakm2": 34862.918, "TotalAreami2": 13460.649, "Latitude": 35.717705, "Longitude": 113.74968899999999, "State": "Arizona"}, {"Sort": 106, "StateAbbr": "AZ", "FIPS": 4017, "County": "Navajo", "CountySeat(s)": "Holbrook", "pop": 107449.0, "LandAreakm2": 25771.473, "LandAreami2": 9950.422, "WaterAreakm2": 24.078, "WaterAreami2": 9.297, "TotalAreakm2": 25795.551, "TotalAreami2": 9959.719, "Latitude": 35.390934, "Longitude": 110.320908, "State": "Arizona"}, {"Sort": 107, "StateAbbr": "AZ", "FIPS": 4019, "County": "Pima", "CountySeat(s)": "Tucson", "pop": 980263.0, "LandAreakm2": 23794.312, "LandAreami2": 9187.036, "WaterAreakm2": 5.338, "WaterAreami2": 2.061, "TotalAreakm2": 23799.649, "TotalAreami2": 9189.097, "Latitude": 32.128237, "Longitude": 111.783018, "State": "Arizona"}, {"Sort": 108, "StateAbbr": "AZ", "FIPS": 4021, "County": "Pinal", "CountySeat(s)": "Florence", "pop": 375770.0, "LandAreakm2": 13896.87, "LandAreami2": 5365.612, "WaterAreakm2": 22.332, "WaterAreami2": 8.622, "TotalAreakm2": 13919.201, "TotalAreami2": 5374.234, "Latitude": 32.91891, "Longitude": 111.36725700000001, "State": "Arizona"}, {"Sort": 109, "StateAbbr": "AZ", "FIPS": 4023, "County": "Santa Cruz", "CountySeat(s)": "Nogales", "pop": 47420.0, "LandAreakm2": 3203.599, "LandAreami2": 1236.916, "WaterAreakm2": 3.088, "WaterAreami2": 1.192, "TotalAreakm2": 3206.687, "TotalAreami2": 1238.108, "Latitude": 31.525903999999997, "Longitude": 110.84518999999999, "State": "Arizona"}, {"Sort": 110, "StateAbbr": "AZ", "FIPS": 4025, "County": "Yavapai", "CountySeat(s)": "Prescott", "pop": 211033.0, "LandAreakm2": 21039.765, "LandAreami2": 8123.499, "WaterAreakm2": 11.502, "WaterAreami2": 4.441, "TotalAreakm2": 21051.267, "TotalAreami2": 8127.94, "Latitude": 34.630044, "Longitude": 112.573745, "State": "Arizona"}, {"Sort": 111, "StateAbbr": "AZ", "FIPS": 4027, "County": "Yuma", "CountySeat(s)": "Yuma", "pop": 195751.0, "LandAreakm2": 14281.174, "LandAreami2": 5513.992, "WaterAreakm2": 13.254, "WaterAreami2": 5.117, "TotalAreakm2": 14294.428, "TotalAreami2": 5519.109, "Latitude": 32.773942, "Longitude": 113.910905, "State": "Arizona"}, {"Sort": 112, "StateAbbr": "AR", "FIPS": 5001, "County": "Arkansas", "CountySeat(s)": "De Witt, Stuttgart", "pop": 19019.0, "LandAreakm2": 2560.903, "LandAreami2": 988.77, "WaterAreakm2": 116.496, "WaterAreami2": 44.979, "TotalAreakm2": 2677.398, "TotalAreami2": 1033.749, "Latitude": 34.289574, "Longitude": 91.376547, "State": "Arkansas"}, {"Sort": 113, "StateAbbr": "AR", "FIPS": 5003, "County": "Ashley", "CountySeat(s)": "Hamburg", "pop": 21853.0, "LandAreakm2": 2396.642, "LandAreami2": 925.349, "WaterAreakm2": 39.311, "WaterAreami2": 15.178, "TotalAreakm2": 2435.953, "TotalAreami2": 940.527, "Latitude": 33.190835, "Longitude": 91.772267, "State": "Arkansas"}, {"Sort": 114, "StateAbbr": "AR", "FIPS": 5005, "County": "Baxter", "CountySeat(s)": "Mountain Home", "pop": 41513.0, "LandAreakm2": 1435.588, "LandAreami2": 554.283, "WaterAreakm2": 83.997, "WaterAreami2": 32.432, "TotalAreakm2": 1519.585, "TotalAreami2": 586.715, "Latitude": 36.28071, "Longitude": 92.330438, "State": "Arkansas"}, {"Sort": 115, "StateAbbr": "AR", "FIPS": 5007, "County": "Benton", "CountySeat(s)": "Bentonville", "pop": 221339.0, "LandAreakm2": 2194.645, "LandAreami2": 847.357, "WaterAreakm2": 94.662, "WaterAreami2": 36.549, "TotalAreakm2": 2289.307, "TotalAreami2": 883.906, "Latitude": 36.337825, "Longitude": 94.256187, "State": "Arkansas"}, {"Sort": 116, "StateAbbr": "AR", "FIPS": 5009, "County": "Boone", "CountySeat(s)": "Harrison", "pop": 36903.0, "LandAreakm2": 1528.692, "LandAreami2": 590.231, "WaterAreakm2": 30.044, "WaterAreami2": 11.6, "TotalAreakm2": 1558.737, "TotalAreami2": 601.831, "Latitude": 36.304308, "Longitude": 93.079204, "State": "Arkansas"}, {"Sort": 117, "StateAbbr": "AR", "FIPS": 5011, "County": "Bradley", "CountySeat(s)": "Warren", "pop": 11508.0, "LandAreakm2": 1681.5, "LandAreami2": 649.231, "WaterAreakm2": 9.547, "WaterAreami2": 3.686, "TotalAreakm2": 1691.047, "TotalAreami2": 652.917, "Latitude": 33.463819, "Longitude": 92.168164, "State": "Arkansas"}, {"Sort": 118, "StateAbbr": "AR", "FIPS": 5013, "County": "Calhoun", "CountySeat(s)": "Hampton", "pop": 5368.0, "LandAreakm2": 1628.017, "LandAreami2": 628.581, "WaterAreakm2": 9.926, "WaterAreami2": 3.833, "TotalAreakm2": 1637.943, "TotalAreami2": 632.414, "Latitude": 33.56046, "Longitude": 92.513879, "State": "Arkansas"}, {"Sort": 119, "StateAbbr": "AR", "FIPS": 5015, "County": "Carroll", "CountySeat(s)": "Berryville, Eureka Springs", "pop": 27446.0, "LandAreakm2": 1631.917, "LandAreami2": 630.087, "WaterAreakm2": 22.566, "WaterAreami2": 8.713, "TotalAreakm2": 1654.484, "TotalAreami2": 638.8, "Latitude": 36.337773999999996, "Longitude": 93.541663, "State": "Arkansas"}, {"Sort": 120, "StateAbbr": "AR", "FIPS": 5017, "County": "Chicot", "CountySeat(s)": "Lake Village", "pop": 11800.0, "LandAreakm2": 1668.74, "LandAreami2": 644.304, "WaterAreakm2": 120.392, "WaterAreami2": 46.483, "TotalAreakm2": 1789.132, "TotalAreami2": 690.787, "Latitude": 33.267139, "Longitude": 91.297158, "State": "Arkansas"}, {"Sort": 121, "StateAbbr": "AR", "FIPS": 5019, "County": "Clark", "CountySeat(s)": "Arkadelphia", "pop": 22995.0, "LandAreakm2": 2243.122, "LandAreami2": 866.074, "WaterAreakm2": 43.396, "WaterAreami2": 16.755, "TotalAreakm2": 2286.518, "TotalAreami2": 882.829, "Latitude": 34.053312, "Longitude": 93.17620500000001, "State": "Arkansas"}, {"Sort": 122, "StateAbbr": "AR", "FIPS": 5021, "County": "Clay", "CountySeat(s)": "Piggott, Corning", "pop": 16083.0, "LandAreakm2": 1656.206, "LandAreami2": 639.465, "WaterAreakm2": 5.106, "WaterAreami2": 1.971, "TotalAreakm2": 1661.312, "TotalAreami2": 641.436, "Latitude": 36.367302, "Longitude": 90.418704, "State": "Arkansas"}, {"Sort": 123, "StateAbbr": "AR", "FIPS": 5023, "County": "Cleburne", "CountySeat(s)": "Heber Springs", "pop": 25970.0, "LandAreakm2": 1434.056, "LandAreami2": 553.692, "WaterAreakm2": 99.015, "WaterAreami2": 38.23, "TotalAreakm2": 1533.071, "TotalAreami2": 591.922, "Latitude": 35.566288, "Longitude": 92.059974, "State": "Arkansas"}, {"Sort": 124, "StateAbbr": "AR", "FIPS": 5025, "County": "Cleveland", "CountySeat(s)": "Rison", "pop": 8689.0, "LandAreakm2": 1548.252, "LandAreami2": 597.783, "WaterAreakm2": 2.5, "WaterAreami2": 0.965, "TotalAreakm2": 1550.752, "TotalAreami2": 598.748, "Latitude": 33.893201, "Longitude": 92.188714, "State": "Arkansas"}, {"Sort": 125, "StateAbbr": "AR", "FIPS": 5027, "County": "Columbia", "CountySeat(s)": "Magnolia", "pop": 24552.0, "LandAreakm2": 1984.067, "LandAreami2": 766.053, "WaterAreakm2": 1.814, "WaterAreami2": 0.7, "TotalAreakm2": 1985.88, "TotalAreami2": 766.753, "Latitude": 33.215070000000004, "Longitude": 93.226901, "State": "Arkansas"}, {"Sort": 126, "StateAbbr": "AR", "FIPS": 5029, "County": "Conway", "CountySeat(s)": "Morrilton", "pop": 21273.0, "LandAreakm2": 1430.32, "LandAreami2": 552.25, "WaterAreakm2": 37.343, "WaterAreami2": 14.418, "TotalAreakm2": 1467.662, "TotalAreami2": 566.668, "Latitude": 35.265702000000005, "Longitude": 92.68924799999999, "State": "Arkansas"}, {"Sort": 127, "StateAbbr": "AR", "FIPS": 5031, "County": "Craighead", "CountySeat(s)": "Lake City, Jonesboro", "pop": 96443.0, "LandAreakm2": 1831.656, "LandAreami2": 707.206, "WaterAreakm2": 14.162, "WaterAreami2": 5.468, "TotalAreakm2": 1845.818, "TotalAreami2": 712.674, "Latitude": 35.828268, "Longitude": 90.630411, "State": "Arkansas"}, {"Sort": 128, "StateAbbr": "AR", "FIPS": 5033, "County": "Crawford", "CountySeat(s)": "Van Buren", "pop": 61948.0, "LandAreakm2": 1536.107, "LandAreami2": 593.094, "WaterAreakm2": 28.874, "WaterAreami2": 11.148, "TotalAreakm2": 1564.981, "TotalAreami2": 604.242, "Latitude": 35.583040999999994, "Longitude": 94.23622399999999, "State": "Arkansas"}, {"Sort": 129, "StateAbbr": "AR", "FIPS": 5035, "County": "Crittenden", "CountySeat(s)": "Marion", "pop": 50902.0, "LandAreakm2": 1579.272, "LandAreami2": 609.76, "WaterAreakm2": 68.939, "WaterAreami2": 26.617, "TotalAreakm2": 1648.211, "TotalAreami2": 636.377, "Latitude": 35.211878000000006, "Longitude": 90.315331, "State": "Arkansas"}, {"Sort": 130, "StateAbbr": "AR", "FIPS": 5037, "County": "Cross", "CountySeat(s)": "Wynne", "pop": 17870.0, "LandAreakm2": 1596.418, "LandAreami2": 616.381, "WaterAreakm2": 15.349, "WaterAreami2": 5.926, "TotalAreakm2": 1611.767, "TotalAreami2": 622.307, "Latitude": 35.291259000000004, "Longitude": 90.773894, "State": "Arkansas"}, {"Sort": 131, "StateAbbr": "AR", "FIPS": 5039, "County": "Dallas", "CountySeat(s)": "Fordyce", "pop": 8116.0, "LandAreakm2": 1728.523, "LandAreami2": 667.386, "WaterAreakm2": 1.864, "WaterAreami2": 0.72, "TotalAreakm2": 1730.387, "TotalAreami2": 668.106, "Latitude": 33.967822999999996, "Longitude": 92.653999, "State": "Arkansas"}, {"Sort": 132, "StateAbbr": "AR", "FIPS": 5041, "County": "Desha", "CountySeat(s)": "Arkansas City", "pop": 13008.0, "LandAreakm2": 1989.504, "LandAreami2": 768.152, "WaterAreakm2": 133.058, "WaterAreami2": 51.374, "TotalAreakm2": 2122.563, "TotalAreami2": 819.526, "Latitude": 33.828748, "Longitude": 91.244427, "State": "Arkansas"}, {"Sort": 133, "StateAbbr": "AR", "FIPS": 5043, "County": "Drew", "CountySeat(s)": "Monticello", "pop": 18509.0, "LandAreakm2": 2145.431, "LandAreami2": 828.356, "WaterAreakm2": 18.921, "WaterAreami2": 7.305, "TotalAreakm2": 2164.352, "TotalAreami2": 835.661, "Latitude": 33.587241999999996, "Longitude": 91.722778, "State": "Arkansas"}, {"Sort": 134, "StateAbbr": "AR", "FIPS": 5045, "County": "Faulkner", "CountySeat(s)": "Conway", "pop": 113237.0, "LandAreakm2": 1678.013, "LandAreami2": 647.884, "WaterAreakm2": 41.927, "WaterAreami2": 16.188, "TotalAreakm2": 1719.94, "TotalAreami2": 664.072, "Latitude": 35.146356, "Longitude": 92.32465400000001, "State": "Arkansas"}, {"Sort": 135, "StateAbbr": "AR", "FIPS": 5047, "County": "Franklin", "CountySeat(s)": "Charleston, Ozark", "pop": 18125.0, "LandAreakm2": 1576.932, "LandAreami2": 608.857, "WaterAreakm2": 27.934, "WaterAreami2": 10.785, "TotalAreakm2": 1604.866, "TotalAreami2": 619.642, "Latitude": 35.508573, "Longitude": 93.887672, "State": "Arkansas"}, {"Sort": 136, "StateAbbr": "AR", "FIPS": 5049, "County": "Fulton", "CountySeat(s)": "Salem", "pop": 12245.0, "LandAreakm2": 1601.114, "LandAreami2": 618.194, "WaterAreakm2": 5.527, "WaterAreami2": 2.134, "TotalAreakm2": 1606.642, "TotalAreami2": 620.328, "Latitude": 36.383443, "Longitude": 91.819239, "State": "Arkansas"}, {"Sort": 137, "StateAbbr": "AR", "FIPS": 5051, "County": "Garland", "CountySeat(s)": "Hot Springs", "pop": 96024.0, "LandAreakm2": 1755.445, "LandAreami2": 677.781, "WaterAreakm2": 147.214, "WaterAreami2": 56.84, "TotalAreakm2": 1902.659, "TotalAreami2": 734.621, "Latitude": 34.578860999999996, "Longitude": 93.146915, "State": "Arkansas"}, {"Sort": 138, "StateAbbr": "AR", "FIPS": 5053, "County": "Grant", "CountySeat(s)": "Sheridan", "pop": 17853.0, "LandAreakm2": 1636.377, "LandAreami2": 631.809, "WaterAreakm2": 2.904, "WaterAreami2": 1.121, "TotalAreakm2": 1639.281, "TotalAreami2": 632.93, "Latitude": 34.288063, "Longitude": 92.42398399999999, "State": "Arkansas"}, {"Sort": 139, "StateAbbr": "AR", "FIPS": 5055, "County": "Greene", "CountySeat(s)": "Paragould", "pop": 42090.0, "LandAreakm2": 1496.233, "LandAreami2": 577.699, "WaterAreakm2": 4.827, "WaterAreami2": 1.864, "TotalAreakm2": 1501.06, "TotalAreami2": 579.563, "Latitude": 36.119921999999995, "Longitude": 90.565241, "State": "Arkansas"}, {"Sort": 140, "StateAbbr": "AR", "FIPS": 5057, "County": "Hempstead", "CountySeat(s)": "Hope", "pop": 22609.0, "LandAreakm2": 1884.268, "LandAreami2": 727.52, "WaterAreakm2": 35.372, "WaterAreami2": 13.657, "TotalAreakm2": 1919.64, "TotalAreami2": 741.177, "Latitude": 33.728611, "Longitude": 93.665809, "State": "Arkansas"}, {"Sort": 141, "StateAbbr": "AR", "FIPS": 5059, "County": "Hot Spring", "CountySeat(s)": "Malvern", "pop": 32923.0, "LandAreakm2": 1593.367, "LandAreami2": 615.202, "WaterAreakm2": 18.053, "WaterAreami2": 6.97, "TotalAreakm2": 1611.42, "TotalAreami2": 622.172, "Latitude": 34.315177, "Longitude": 92.944147, "State": "Arkansas"}, {"Sort": 142, "StateAbbr": "AR", "FIPS": 5061, "County": "Howard", "CountySeat(s)": "Nashville", "pop": 13789.0, "LandAreakm2": 1524.347, "LandAreami2": 588.554, "WaterAreakm2": 17.509, "WaterAreami2": 6.76, "TotalAreakm2": 1541.856, "TotalAreami2": 595.314, "Latitude": 34.083179, "Longitude": 93.990988, "State": "Arkansas"}, {"Sort": 143, "StateAbbr": "AR", "FIPS": 5063, "County": "Independence", "CountySeat(s)": "Batesville", "pop": 36647.0, "LandAreakm2": 1978.629, "LandAreami2": 763.953, "WaterAreakm2": 19.594, "WaterAreami2": 7.565, "TotalAreakm2": 1998.223, "TotalAreami2": 771.518, "Latitude": 35.737499, "Longitude": 91.559942, "State": "Arkansas"}, {"Sort": 144, "StateAbbr": "AR", "FIPS": 5065, "County": "Izard", "CountySeat(s)": "Melbourne", "pop": 13696.0, "LandAreakm2": 1503.686, "LandAreami2": 580.577, "WaterAreakm2": 8.913, "WaterAreami2": 3.441, "TotalAreakm2": 1512.599, "TotalAreami2": 584.018, "Latitude": 36.094879, "Longitude": 91.913625, "State": "Arkansas"}, {"Sort": 145, "StateAbbr": "AR", "FIPS": 5067, "County": "Jackson", "CountySeat(s)": "Newport", "pop": 17997.0, "LandAreakm2": 1641.893, "LandAreami2": 633.938, "WaterAreakm2": 19.588, "WaterAreami2": 7.563, "TotalAreakm2": 1661.481, "TotalAreami2": 641.501, "Latitude": 35.596605, "Longitude": 91.223178, "State": "Arkansas"}, {"Sort": 146, "StateAbbr": "AR", "FIPS": 5069, "County": "Jefferson", "CountySeat(s)": "Pine Bluff", "pop": 77435.0, "LandAreakm2": 2255.221, "LandAreami2": 870.746, "WaterAreakm2": 111.448, "WaterAreami2": 43.03, "TotalAreakm2": 2366.668, "TotalAreami2": 913.776, "Latitude": 34.277696, "Longitude": 91.930701, "State": "Arkansas"}, {"Sort": 147, "StateAbbr": "AR", "FIPS": 5071, "County": "Johnson", "CountySeat(s)": "Clarksville", "pop": 25540.0, "LandAreakm2": 1708.883, "LandAreami2": 659.804, "WaterAreakm2": 59.416, "WaterAreami2": 22.94, "TotalAreakm2": 1768.299, "TotalAreami2": 682.744, "Latitude": 35.573359, "Longitude": 93.46632199999999, "State": "Arkansas"}, {"Sort": 148, "StateAbbr": "AR", "FIPS": 5073, "County": "Lafayette", "CountySeat(s)": "Lewisville", "pop": 7645.0, "LandAreakm2": 1368.208, "LandAreami2": 528.268, "WaterAreakm2": 43.539, "WaterAreami2": 16.811, "TotalAreakm2": 1411.748, "TotalAreami2": 545.079, "Latitude": 33.24066, "Longitude": 93.611643, "State": "Arkansas"}, {"Sort": 149, "StateAbbr": "AR", "FIPS": 5075, "County": "Lawrence", "CountySeat(s)": "Walnut Ridge", "pop": 17415.0, "LandAreakm2": 1521.913, "LandAreami2": 587.614, "WaterAreakm2": 12.245, "WaterAreami2": 4.728, "TotalAreakm2": 1534.158, "TotalAreami2": 592.342, "Latitude": 36.041098, "Longitude": 91.101153, "State": "Arkansas"}, {"Sort": 150, "StateAbbr": "AR", "FIPS": 5077, "County": "Lee", "CountySeat(s)": "Marianna", "pop": 10424.0, "LandAreakm2": 1560.781, "LandAreami2": 602.621, "WaterAreakm2": 43.722, "WaterAreami2": 16.881, "TotalAreakm2": 1604.503, "TotalAreami2": 619.502, "Latitude": 34.77975, "Longitude": 90.779288, "State": "Arkansas"}, {"Sort": 151, "StateAbbr": "AR", "FIPS": 5079, "County": "Lincoln", "CountySeat(s)": "Star City", "pop": 14134.0, "LandAreakm2": 1454.321, "LandAreami2": 561.517, "WaterAreakm2": 27.631, "WaterAreami2": 10.668, "TotalAreakm2": 1481.952, "TotalAreami2": 572.185, "Latitude": 33.957665000000006, "Longitude": 91.727624, "State": "Arkansas"}, {"Sort": 152, "StateAbbr": "AR", "FIPS": 5081, "County": "Little River", "CountySeat(s)": "Ashdown", "pop": 13171.0, "LandAreakm2": 1378.53, "LandAreami2": 532.253, "WaterAreakm2": 84.208, "WaterAreami2": 32.513, "TotalAreakm2": 1462.737, "TotalAreami2": 564.766, "Latitude": 33.699496999999994, "Longitude": 94.229774, "State": "Arkansas"}, {"Sort": 153, "StateAbbr": "AR", "FIPS": 5083, "County": "Logan", "CountySeat(s)": "Booneville, Paris", "pop": 22353.0, "LandAreakm2": 1834.034, "LandAreami2": 708.125, "WaterAreakm2": 60.696, "WaterAreami2": 23.435, "TotalAreakm2": 1894.731, "TotalAreami2": 731.56, "Latitude": 35.21855, "Longitude": 93.720563, "State": "Arkansas"}, {"Sort": 154, "StateAbbr": "AR", "FIPS": 5085, "County": "Lonoke", "CountySeat(s)": "Lonoke", "pop": 68356.0, "LandAreakm2": 1996.177, "LandAreami2": 770.728, "WaterAreakm2": 83.17, "WaterAreami2": 32.112, "TotalAreakm2": 2079.347, "TotalAreami2": 802.84, "Latitude": 34.755114, "Longitude": 91.894132, "State": "Arkansas"}, {"Sort": 155, "StateAbbr": "AR", "FIPS": 5087, "County": "Madison", "CountySeat(s)": "Huntsville", "pop": 15717.0, "LandAreakm2": 2160.711, "LandAreami2": 834.255, "WaterAreakm2": 7.316, "WaterAreami2": 2.825, "TotalAreakm2": 2168.028, "TotalAreami2": 837.08, "Latitude": 36.012545, "Longitude": 93.724053, "State": "Arkansas"}, {"Sort": 156, "StateAbbr": "AR", "FIPS": 5089, "County": "Marion", "CountySeat(s)": "Yellville", "pop": 16653.0, "LandAreakm2": 1546.245, "LandAreami2": 597.009, "WaterAreakm2": 112.175, "WaterAreami2": 43.311, "TotalAreakm2": 1658.42, "TotalAreami2": 640.32, "Latitude": 36.266656, "Longitude": 92.678588, "State": "Arkansas"}, {"Sort": 157, "StateAbbr": "AR", "FIPS": 5091, "County": "Miller", "CountySeat(s)": "Texarkana", "pop": 43462.0, "LandAreakm2": 1620.24, "LandAreami2": 625.578, "WaterAreakm2": 31.264, "WaterAreami2": 12.071, "TotalAreakm2": 1651.504, "TotalAreami2": 637.649, "Latitude": 33.305505, "Longitude": 93.90150899999999, "State": "Arkansas"}, {"Sort": 158, "StateAbbr": "AR", "FIPS": 5093, "County": "Mississippi", "CountySeat(s)": "Blytheville, Osceola", "pop": 46480.0, "LandAreakm2": 2332.476, "LandAreami2": 900.574, "WaterAreakm2": 49.826, "WaterAreami2": 19.238, "TotalAreakm2": 2382.302, "TotalAreami2": 919.812, "Latitude": 35.766943, "Longitude": 90.05220899999999, "State": "Arkansas"}, {"Sort": 159, "StateAbbr": "AR", "FIPS": 5095, "County": "Monroe", "CountySeat(s)": "Clarendon", "pop": 8149.0, "LandAreakm2": 1572.439, "LandAreami2": 607.122, "WaterAreakm2": 36.715, "WaterAreami2": 14.176, "TotalAreakm2": 1609.154, "TotalAreami2": 621.298, "Latitude": 34.679513, "Longitude": 91.203314, "State": "Arkansas"}, {"Sort": 160, "StateAbbr": "AR", "FIPS": 5097, "County": "Montgomery", "CountySeat(s)": "Mount Ida", "pop": 9487.0, "LandAreakm2": 2019.88, "LandAreami2": 779.88, "WaterAreakm2": 52.86, "WaterAreami2": 20.409, "TotalAreakm2": 2072.74, "TotalAreami2": 800.289, "Latitude": 34.545652000000004, "Longitude": 93.664147, "State": "Arkansas"}, {"Sort": 161, "StateAbbr": "AR", "FIPS": 5099, "County": "Nevada", "CountySeat(s)": "Prescott", "pop": 8997.0, "LandAreakm2": 1600.19, "LandAreami2": 617.837, "WaterAreakm2": 7.258, "WaterAreami2": 2.802, "TotalAreakm2": 1607.447, "TotalAreami2": 620.639, "Latitude": 33.666699, "Longitude": 93.305072, "State": "Arkansas"}, {"Sort": 162, "StateAbbr": "AR", "FIPS": 5101, "County": "Newton", "CountySeat(s)": "Jasper", "pop": 8330.0, "LandAreakm2": 2126.11, "LandAreami2": 820.896, "WaterAreakm2": 5.932, "WaterAreami2": 2.29, "TotalAreakm2": 2132.042, "TotalAreami2": 823.186, "Latitude": 35.910063, "Longitude": 93.21508399999999, "State": "Arkansas"}, {"Sort": 163, "StateAbbr": "AR", "FIPS": 5103, "County": "Ouachita", "CountySeat(s)": "Camden", "pop": 26120.0, "LandAreakm2": 1897.9, "LandAreami2": 732.783, "WaterAreakm2": 18.05, "WaterAreami2": 6.969, "TotalAreakm2": 1915.95, "TotalAreami2": 739.752, "Latitude": 33.591158, "Longitude": 92.87841800000001, "State": "Arkansas"}, {"Sort": 164, "StateAbbr": "AR", "FIPS": 5105, "County": "Perry", "CountySeat(s)": "Perryville", "pop": 10445.0, "LandAreakm2": 1428.126, "LandAreami2": 551.402, "WaterAreakm2": 23.649, "WaterAreami2": 9.131, "TotalAreakm2": 1451.775, "TotalAreami2": 560.533, "Latitude": 34.946363, "Longitude": 92.926877, "State": "Arkansas"}, {"Sort": 165, "StateAbbr": "AR", "FIPS": 5107, "County": "Phillips", "CountySeat(s)": "Helena-West Helena", "pop": 21757.0, "LandAreakm2": 1801.758, "LandAreami2": 695.663, "WaterAreakm2": 82.056, "WaterAreami2": 31.682, "TotalAreakm2": 1883.814, "TotalAreami2": 727.345, "Latitude": 34.425841999999996, "Longitude": 90.848386, "State": "Arkansas"}, {"Sort": 166, "StateAbbr": "AR", "FIPS": 5109, "County": "Pike", "CountySeat(s)": "Murfreesboro", "pop": 11291.0, "LandAreakm2": 1555.592, "LandAreami2": 600.618, "WaterAreakm2": 34.996, "WaterAreami2": 13.512, "TotalAreakm2": 1590.588, "TotalAreami2": 614.13, "Latitude": 34.158190999999995, "Longitude": 93.658659, "State": "Arkansas"}, {"Sort": 167, "StateAbbr": "AR", "FIPS": 5111, "County": "Poinsett", "CountySeat(s)": "Harrisburg", "pop": 24583.0, "LandAreakm2": 1964.218, "LandAreami2": 758.389, "WaterAreakm2": 13.523, "WaterAreami2": 5.221, "TotalAreakm2": 1977.74, "TotalAreami2": 763.61, "Latitude": 35.568981, "Longitude": 90.680595, "State": "Arkansas"}, {"Sort": 168, "StateAbbr": "AR", "FIPS": 5113, "County": "Polk", "CountySeat(s)": "Mena", "pop": 20662.0, "LandAreakm2": 2221.378, "LandAreami2": 857.679, "WaterAreakm2": 12.387, "WaterAreami2": 4.783, "TotalAreakm2": 2233.765, "TotalAreami2": 862.462, "Latitude": 34.490915, "Longitude": 94.230884, "State": "Arkansas"}, {"Sort": 169, "StateAbbr": "AR", "FIPS": 5115, "County": "Pope", "CountySeat(s)": "Russellville", "pop": 61754.0, "LandAreakm2": 2104.491, "LandAreami2": 812.548, "WaterAreakm2": 47.207, "WaterAreami2": 18.227, "TotalAreakm2": 2151.697, "TotalAreami2": 830.775, "Latitude": 35.455296999999995, "Longitude": 93.03153499999999, "State": "Arkansas"}, {"Sort": 170, "StateAbbr": "AR", "FIPS": 5117, "County": "Prairie", "CountySeat(s)": "Des Arc, De Valls Bluff", "pop": 8715.0, "LandAreakm2": 1678.204, "LandAreami2": 647.958, "WaterAreakm2": 71.629, "WaterAreami2": 27.656, "TotalAreakm2": 1749.833, "TotalAreami2": 675.614, "Latitude": 34.828225, "Longitude": 91.5572, "State": "Arkansas"}, {"Sort": 171, "StateAbbr": "AR", "FIPS": 5119, "County": "Pulaski", "CountySeat(s)": "Little Rock", "pop": 382748.0, "LandAreakm2": 1967.777, "LandAreami2": 759.763, "WaterAreakm2": 124.062, "WaterAreami2": 47.9, "TotalAreakm2": 2091.839, "TotalAreami2": 807.663, "Latitude": 34.773988, "Longitude": 92.316515, "State": "Arkansas"}, {"Sort": 172, "StateAbbr": "AR", "FIPS": 5121, "County": "Randolph", "CountySeat(s)": "Pocahontas", "pop": 17969.0, "LandAreakm2": 1689.166, "LandAreami2": 652.191, "WaterAreakm2": 9.968, "WaterAreami2": 3.849, "TotalAreakm2": 1699.134, "TotalAreami2": 656.04, "Latitude": 36.341299, "Longitude": 91.028441, "State": "Arkansas"}, {"Sort": 173, "StateAbbr": "AR", "FIPS": 5123, "County": "St. Francis", "CountySeat(s)": "Forrest City", "pop": 28258.0, "LandAreakm2": 1644.049, "LandAreami2": 634.771, "WaterAreakm2": 20.05, "WaterAreami2": 7.741, "TotalAreakm2": 1664.099, "TotalAreami2": 642.512, "Latitude": 35.014438, "Longitude": 90.742199, "State": "Arkansas"}, {"Sort": 174, "StateAbbr": "AR", "FIPS": 5125, "County": "Saline", "CountySeat(s)": "Benton", "pop": 107118.0, "LandAreakm2": 1874.125, "LandAreami2": 723.604, "WaterAreakm2": 17.836, "WaterAreami2": 6.886, "TotalAreakm2": 1891.96, "TotalAreami2": 730.49, "Latitude": 34.648525, "Longitude": 92.674463, "State": "Arkansas"}, {"Sort": 175, "StateAbbr": "AR", "FIPS": 5127, "County": "Scott", "CountySeat(s)": "Waldron", "pop": 11233.0, "LandAreakm2": 2311.098, "LandAreami2": 892.32, "WaterAreakm2": 14.901, "WaterAreami2": 5.753, "TotalAreakm2": 2325.999, "TotalAreami2": 898.073, "Latitude": 34.858869, "Longitude": 94.063641, "State": "Arkansas"}, {"Sort": 176, "StateAbbr": "AR", "FIPS": 5129, "County": "Searcy", "CountySeat(s)": "Marshall", "pop": 8195.0, "LandAreakm2": 1725.177, "LandAreami2": 666.095, "WaterAreakm2": 6.257, "WaterAreami2": 2.416, "TotalAreakm2": 1731.434, "TotalAreami2": 668.511, "Latitude": 35.909659999999995, "Longitude": 92.69935100000001, "State": "Arkansas"}, {"Sort": 177, "StateAbbr": "AR", "FIPS": 5131, "County": "Sebastian", "CountySeat(s)": "Greenwood, Fort Smith", "pop": 125744.0, "LandAreakm2": 1377.644, "LandAreami2": 531.911, "WaterAreakm2": 36.906, "WaterAreami2": 14.249, "TotalAreakm2": 1414.549, "TotalAreami2": 546.16, "Latitude": 35.196981, "Longitude": 94.274989, "State": "Arkansas"}, {"Sort": 178, "StateAbbr": "AR", "FIPS": 5133, "County": "Sevier", "CountySeat(s)": "De Queen", "pop": 17058.0, "LandAreakm2": 1463.67, "LandAreami2": 565.126, "WaterAreakm2": 41.831, "WaterAreami2": 16.151, "TotalAreakm2": 1505.501, "TotalAreami2": 581.277, "Latitude": 33.994608, "Longitude": 94.24329, "State": "Arkansas"}, {"Sort": 179, "StateAbbr": "AR", "FIPS": 5135, "County": "Sharp", "CountySeat(s)": "Ash Flat", "pop": 17264.0, "LandAreakm2": 1565.489, "LandAreami2": 604.439, "WaterAreakm2": 5.173, "WaterAreami2": 1.997, "TotalAreakm2": 1570.662, "TotalAreami2": 606.436, "Latitude": 36.173398999999996, "Longitude": 91.471069, "State": "Arkansas"}, {"Sort": 180, "StateAbbr": "AR", "FIPS": 5137, "County": "Stone", "CountySeat(s)": "Mountain View", "pop": 12394.0, "LandAreakm2": 1570.581, "LandAreami2": 606.405, "WaterAreakm2": 7.839, "WaterAreami2": 3.027, "TotalAreakm2": 1578.42, "TotalAreami2": 609.432, "Latitude": 35.856989, "Longitude": 92.14049399999999, "State": "Arkansas"}, {"Sort": 181, "StateAbbr": "AR", "FIPS": 5139, "County": "Union", "CountySeat(s)": "El Dorado", "pop": 41639.0, "LandAreakm2": 2691.553, "LandAreami2": 1039.214, "WaterAreakm2": 41.402, "WaterAreami2": 15.985, "TotalAreakm2": 2732.954, "TotalAreami2": 1055.199, "Latitude": 33.168219, "Longitude": 92.598145, "State": "Arkansas"}, {"Sort": 182, "StateAbbr": "AR", "FIPS": 5141, "County": "Van Buren", "CountySeat(s)": "Clinton", "pop": 17295.0, "LandAreakm2": 1834.082, "LandAreami2": 708.143, "WaterAreakm2": 41.806, "WaterAreami2": 16.141, "TotalAreakm2": 1875.888, "TotalAreami2": 724.284, "Latitude": 35.582959, "Longitude": 92.515977, "State": "Arkansas"}, {"Sort": 183, "StateAbbr": "AR", "FIPS": 5143, "County": "Washington", "CountySeat(s)": "Fayetteville", "pop": 203065.0, "LandAreakm2": 2439.682, "LandAreami2": 941.966, "WaterAreakm2": 27.047, "WaterAreami2": 10.443, "TotalAreakm2": 2466.729, "TotalAreami2": 952.409, "Latitude": 35.971209, "Longitude": 94.218417, "State": "Arkansas"}, {"Sort": 184, "StateAbbr": "AR", "FIPS": 5145, "County": "White", "CountySeat(s)": "Searcy", "pop": 77076.0, "LandAreakm2": 2680.833, "LandAreami2": 1035.075, "WaterAreakm2": 18.311, "WaterAreami2": 7.07, "TotalAreakm2": 2699.144, "TotalAreami2": 1042.145, "Latitude": 35.254721999999994, "Longitude": 91.753158, "State": "Arkansas"}, {"Sort": 185, "StateAbbr": "AR", "FIPS": 5147, "County": "Woodruff", "CountySeat(s)": "Augusta", "pop": 7260.0, "LandAreakm2": 1519.781, "LandAreami2": 586.791, "WaterAreakm2": 18.708, "WaterAreami2": 7.223, "TotalAreakm2": 1538.489, "TotalAreami2": 594.014, "Latitude": 35.189071000000006, "Longitude": 91.24441800000001, "State": "Arkansas"}, {"Sort": 186, "StateAbbr": "AR", "FIPS": 5149, "County": "Yell", "CountySeat(s)": "Dardanelle, Danville", "pop": 22185.0, "LandAreakm2": 2408.647, "LandAreami2": 929.984, "WaterAreakm2": 48.88, "WaterAreami2": 18.873, "TotalAreakm2": 2457.528, "TotalAreami2": 948.857, "Latitude": 34.997713, "Longitude": 93.408303, "State": "Arkansas"}, {"Sort": 187, "StateAbbr": "CA", "FIPS": 6001, "County": "Alameda", "CountySeat(s)": "Oakland", "pop": 1510271.0, "LandAreakm2": 1914.046, "LandAreami2": 739.017, "WaterAreakm2": 213.185, "WaterAreami2": 82.311, "TotalAreakm2": 2127.231, "TotalAreami2": 821.328, "Latitude": 37.648081, "Longitude": 121.91330400000001, "State": "California"}, {"Sort": 188, "StateAbbr": "CA", "FIPS": 6003, "County": "Alpine", "CountySeat(s)": "Markleeville", "pop": 1175.0, "LandAreakm2": 1912.272, "LandAreami2": 738.332, "WaterAreakm2": 12.557, "WaterAreami2": 4.848, "TotalAreakm2": 1924.829, "TotalAreami2": 743.18, "Latitude": 38.61761, "Longitude": 119.798999, "State": "California"}, {"Sort": 189, "StateAbbr": "CA", "FIPS": 6005, "County": "Amador", "CountySeat(s)": "Jackson", "pop": 38091.0, "LandAreakm2": 1539.963, "LandAreami2": 594.583, "WaterAreakm2": 29.457, "WaterAreami2": 11.373, "TotalAreakm2": 1569.42, "TotalAreami2": 605.956, "Latitude": 38.44355, "Longitude": 120.653856, "State": "California"}, {"Sort": 190, "StateAbbr": "CA", "FIPS": 6007, "County": "Butte", "CountySeat(s)": "Oroville", "pop": 220000.0, "LandAreakm2": 4238.423, "LandAreami2": 1636.464, "WaterAreakm2": 105.326, "WaterAreami2": 40.667, "TotalAreakm2": 4343.749, "TotalAreami2": 1677.131, "Latitude": 39.665959, "Longitude": 121.601919, "State": "California"}, {"Sort": 191, "StateAbbr": "CA", "FIPS": 6009, "County": "Calaveras", "CountySeat(s)": "San Andreas", "pop": 45578.0, "LandAreakm2": 2641.82, "LandAreami2": 1020.012, "WaterAreakm2": 43.81, "WaterAreami2": 16.915, "TotalAreakm2": 2685.63, "TotalAreami2": 1036.927, "Latitude": 38.187844, "Longitude": 120.55511499999999, "State": "California"}, {"Sort": 192, "StateAbbr": "CA", "FIPS": 6011, "County": "Colusa", "CountySeat(s)": "Colusa", "pop": 21419.0, "LandAreakm2": 2980.379, "LandAreami2": 1150.731, "WaterAreakm2": 14.581, "WaterAreami2": 5.63, "TotalAreakm2": 2994.96, "TotalAreami2": 1156.361, "Latitude": 39.177739, "Longitude": 122.237563, "State": "California"}, {"Sort": 193, "StateAbbr": "CA", "FIPS": 6013, "County": "Contra Costa", "CountySeat(s)": "Martinez", "pop": 1049025.0, "LandAreakm2": 1854.269, "LandAreami2": 715.937, "WaterAreakm2": 227.485, "WaterAreami2": 87.833, "TotalAreakm2": 2081.754, "TotalAreami2": 803.77, "Latitude": 37.919478999999995, "Longitude": 121.95154299999999, "State": "California"}, {"Sort": 194, "StateAbbr": "CA", "FIPS": 6015, "County": "Del Norte", "CountySeat(s)": "Crescent City", "pop": 28610.0, "LandAreakm2": 2606.494, "LandAreami2": 1006.373, "WaterAreakm2": 578.526, "WaterAreami2": 223.37, "TotalAreakm2": 3185.02, "TotalAreami2": 1229.743, "Latitude": 41.749903, "Longitude": 123.980998, "State": "California"}, {"Sort": 195, "StateAbbr": "CA", "FIPS": 6017, "County": "El Dorado", "CountySeat(s)": "Placerville", "pop": 181058.0, "LandAreakm2": 4423.397, "LandAreami2": 1707.883, "WaterAreakm2": 203.243, "WaterAreami2": 78.473, "TotalAreakm2": 4626.64, "TotalAreami2": 1786.356, "Latitude": 38.785532, "Longitude": 120.534398, "State": "California"}, {"Sort": 196, "StateAbbr": "CA", "FIPS": 6019, "County": "Fresno", "CountySeat(s)": "Fresno", "pop": 930450.0, "LandAreakm2": 15431.126, "LandAreami2": 5957.991, "WaterAreakm2": 137.816, "WaterAreami2": 53.211, "TotalAreakm2": 15568.942, "TotalAreami2": 6011.202, "Latitude": 36.761006, "Longitude": 119.655019, "State": "California"}, {"Sort": 197, "StateAbbr": "CA", "FIPS": 6021, "County": "Glenn", "CountySeat(s)": "Willows", "pop": 28122.0, "LandAreakm2": 3403.107, "LandAreami2": 1313.947, "WaterAreakm2": 33.75, "WaterAreami2": 13.031, "TotalAreakm2": 3436.857, "TotalAreami2": 1326.978, "Latitude": 39.602546000000004, "Longitude": 122.4017, "State": "California"}, {"Sort": 198, "StateAbbr": "CA", "FIPS": 6023, "County": "Humboldt", "CountySeat(s)": "Eureka", "pop": 134623.0, "LandAreakm2": 9241.045, "LandAreami2": 3567.987, "WaterAreakm2": 1254.256, "WaterAreami2": 484.271, "TotalAreakm2": 10495.301, "TotalAreami2": 4052.258, "Latitude": 40.706672999999995, "Longitude": 123.92581799999999, "State": "California"}, {"Sort": 199, "StateAbbr": "CA", "FIPS": 6025, "County": "Imperial", "CountySeat(s)": "El Centro", "pop": 174528.0, "LandAreakm2": 10817.353, "LandAreami2": 4176.603, "WaterAreakm2": 790.248, "WaterAreami2": 305.116, "TotalAreakm2": 11607.6, "TotalAreami2": 4481.719, "Latitude": 33.040816, "Longitude": 115.355395, "State": "California"}, {"Sort": 200, "StateAbbr": "CA", "FIPS": 6027, "County": "Inyo", "CountySeat(s)": "Independence", "pop": 18546.0, "LandAreakm2": 26368.354, "LandAreami2": 10180.879, "WaterAreakm2": 119.208, "WaterAreami2": 46.026, "TotalAreakm2": 26487.562, "TotalAreami2": 10226.905, "Latitude": 36.561977, "Longitude": 117.403927, "State": "California"}, {"Sort": 201, "StateAbbr": "CA", "FIPS": 6029, "County": "Kern", "CountySeat(s)": "Bakersfield", "pop": 839631.0, "LandAreakm2": 21061.565, "LandAreami2": 8131.916, "WaterAreakm2": 79.577, "WaterAreami2": 30.725, "TotalAreakm2": 21141.142, "TotalAreami2": 8162.641, "Latitude": 35.346629, "Longitude": 118.729506, "State": "California"}, {"Sort": 202, "StateAbbr": "CA", "FIPS": 6031, "County": "Kings", "CountySeat(s)": "Hanford", "pop": 152982.0, "LandAreakm2": 3598.582, "LandAreami2": 1389.42, "WaterAreakm2": 5.469, "WaterAreami2": 2.111, "TotalAreakm2": 3604.051, "TotalAreami2": 1391.531, "Latitude": 36.072478000000004, "Longitude": 119.81553000000001, "State": "California"}, {"Sort": 203, "StateAbbr": "CA", "FIPS": 6033, "County": "Lake", "CountySeat(s)": "Lakeport", "pop": 64665.0, "LandAreakm2": 3254.228, "LandAreami2": 1256.464, "WaterAreakm2": 188.962, "WaterAreami2": 72.959, "TotalAreakm2": 3443.19, "TotalAreami2": 1329.423, "Latitude": 39.094802, "Longitude": 122.746757, "State": "California"}, {"Sort": 204, "StateAbbr": "CA", "FIPS": 6035, "County": "Lassen", "CountySeat(s)": "Susanville", "pop": 34895.0, "LandAreakm2": 11761.612, "LandAreami2": 4541.184, "WaterAreakm2": 463.441, "WaterAreami2": 178.935, "TotalAreakm2": 12225.053, "TotalAreami2": 4720.119, "Latitude": 40.721089, "Longitude": 120.629931, "State": "California"}, {"Sort": 205, "StateAbbr": "CA", "FIPS": 6037, "County": "Los Angeles", "CountySeat(s)": "Los Angeles", "pop": 9818605.0, "LandAreakm2": 10509.87, "LandAreami2": 4057.884, "WaterAreakm2": 1795.013, "WaterAreami2": 693.058, "TotalAreakm2": 12304.883, "TotalAreami2": 4750.942, "Latitude": 34.196397999999995, "Longitude": 118.26186200000001, "State": "California"}, {"Sort": 206, "StateAbbr": "CA", "FIPS": 6039, "County": "Madera", "CountySeat(s)": "Madera", "pop": 150865.0, "LandAreakm2": 5534.983, "LandAreami2": 2137.069, "WaterAreakm2": 41.958, "WaterAreami2": 16.2, "TotalAreakm2": 5576.94, "TotalAreami2": 2153.269, "Latitude": 37.210039, "Longitude": 119.749852, "State": "California"}, {"Sort": 207, "StateAbbr": "CA", "FIPS": 6041, "County": "Marin", "CountySeat(s)": "San Rafael", "pop": 252409.0, "LandAreakm2": 1347.586, "LandAreami2": 520.306, "WaterAreakm2": 797.42, "WaterAreami2": 307.886, "TotalAreakm2": 2145.006, "TotalAreami2": 828.192, "Latitude": 38.051817, "Longitude": 122.745974, "State": "California"}, {"Sort": 208, "StateAbbr": "CA", "FIPS": 6043, "County": "Mariposa", "CountySeat(s)": "Mariposa", "pop": 18251.0, "LandAreakm2": 3752.417, "LandAreami2": 1448.816, "WaterAreakm2": 36.271, "WaterAreami2": 14.004, "TotalAreakm2": 3788.688, "TotalAreami2": 1462.82, "Latitude": 37.570034, "Longitude": 119.91286000000001, "State": "California"}, {"Sort": 209, "StateAbbr": "CA", "FIPS": 6045, "County": "Mendocino", "CountySeat(s)": "Ukiah", "pop": 87841.0, "LandAreakm2": 9081.386, "LandAreami2": 3506.343, "WaterAreakm2": 962.953, "WaterAreami2": 371.798, "TotalAreakm2": 10044.339, "TotalAreami2": 3878.141, "Latitude": 39.432388, "Longitude": 123.442881, "State": "California"}, {"Sort": 210, "StateAbbr": "CA", "FIPS": 6047, "County": "Merced", "CountySeat(s)": "Merced", "pop": 255793.0, "LandAreakm2": 5011.555, "LandAreami2": 1934.972, "WaterAreakm2": 112.76, "WaterAreami2": 43.537, "TotalAreakm2": 5124.315, "TotalAreami2": 1978.509, "Latitude": 37.194806, "Longitude": 120.722802, "State": "California"}, {"Sort": 211, "StateAbbr": "CA", "FIPS": 6049, "County": "Modoc", "CountySeat(s)": "Alturas", "pop": 9686.0, "LandAreakm2": 10146.977, "LandAreami2": 3917.77, "WaterAreakm2": 739.774, "WaterAreami2": 285.629, "TotalAreakm2": 10886.752, "TotalAreami2": 4203.399, "Latitude": 41.592919, "Longitude": 120.71837, "State": "California"}, {"Sort": 212, "StateAbbr": "CA", "FIPS": 6051, "County": "Mono", "CountySeat(s)": "Bridgeport", "pop": 14202.0, "LandAreakm2": 7896.827, "LandAreami2": 3048.982, "WaterAreakm2": 214.695, "WaterAreami2": 82.894, "TotalAreakm2": 8111.523, "TotalAreami2": 3131.876, "Latitude": 37.915836, "Longitude": 118.87516699999999, "State": "California"}, {"Sort": 213, "StateAbbr": "CA", "FIPS": 6053, "County": "Monterey", "CountySeat(s)": "Salinas", "pop": 415057.0, "LandAreakm2": 8496.703, "LandAreami2": 3280.595, "WaterAreakm2": 1270.714, "WaterAreami2": 490.626, "TotalAreakm2": 9767.417, "TotalAreami2": 3771.221, "Latitude": 36.240107, "Longitude": 121.315573, "State": "California"}, {"Sort": 214, "StateAbbr": "CA", "FIPS": 6055, "County": "Napa", "CountySeat(s)": "Napa", "pop": 136484.0, "LandAreakm2": 1938.247, "LandAreami2": 748.362, "WaterAreakm2": 104.169, "WaterAreami2": 40.22, "TotalAreakm2": 2042.417, "TotalAreami2": 788.582, "Latitude": 38.507351, "Longitude": 122.32599499999999, "State": "California"}, {"Sort": 215, "StateAbbr": "CA", "FIPS": 6057, "County": "Nevada", "CountySeat(s)": "Nevada City", "pop": 98764.0, "LandAreakm2": 2480.617, "LandAreami2": 957.772, "WaterAreakm2": 41.515, "WaterAreami2": 16.029, "TotalAreakm2": 2522.132, "TotalAreami2": 973.801, "Latitude": 39.295190999999996, "Longitude": 120.77344599999999, "State": "California"}, {"Sort": 216, "StateAbbr": "CA", "FIPS": 6059, "County": "Orange", "CountySeat(s)": "Santa Ana", "pop": 3010232.0, "LandAreakm2": 2047.561, "LandAreami2": 790.568, "WaterAreakm2": 407.917, "WaterAreami2": 157.498, "TotalAreakm2": 2455.478, "TotalAreami2": 948.066, "Latitude": 33.675686999999996, "Longitude": 117.777207, "State": "California"}, {"Sort": 217, "StateAbbr": "CA", "FIPS": 6061, "County": "Placer", "CountySeat(s)": "Auburn", "pop": 348432.0, "LandAreakm2": 3644.136, "LandAreami2": 1407.009, "WaterAreakm2": 247.205, "WaterAreami2": 95.447, "TotalAreakm2": 3891.341, "TotalAreami2": 1502.456, "Latitude": 39.062032, "Longitude": 120.722718, "State": "California"}, {"Sort": 218, "StateAbbr": "CA", "FIPS": 6063, "County": "Plumas", "CountySeat(s)": "Quincy", "pop": 20007.0, "LandAreakm2": 6612.351, "LandAreami2": 2553.043, "WaterAreakm2": 156.395, "WaterAreami2": 60.385, "TotalAreakm2": 6768.746, "TotalAreami2": 2613.428, "Latitude": 39.99517, "Longitude": 120.829516, "State": "California"}, {"Sort": 219, "StateAbbr": "CA", "FIPS": 6065, "County": "Riverside", "CountySeat(s)": "Riverside", "pop": 2189641.0, "LandAreakm2": 18664.697, "LandAreami2": 7206.48, "WaterAreakm2": 251.073, "WaterAreami2": 96.94, "TotalAreakm2": 18915.77, "TotalAreami2": 7303.42, "Latitude": 33.729828000000005, "Longitude": 116.00223899999999, "State": "California"}, {"Sort": 220, "StateAbbr": "CA", "FIPS": 6067, "County": "Sacramento", "CountySeat(s)": "Sacramento", "pop": 1418788.0, "LandAreakm2": 2498.416, "LandAreami2": 964.644, "WaterAreakm2": 76.077, "WaterAreami2": 29.374, "TotalAreakm2": 2574.493, "TotalAreami2": 994.018, "Latitude": 38.450010999999996, "Longitude": 121.340441, "State": "California"}, {"Sort": 221, "StateAbbr": "CA", "FIPS": 6069, "County": "San Benito", "CountySeat(s)": "Hollister", "pop": 55269.0, "LandAreakm2": 3596.742, "LandAreami2": 1388.71, "WaterAreakm2": 4.555, "WaterAreami2": 1.759, "TotalAreakm2": 3601.297, "TotalAreami2": 1390.469, "Latitude": 36.610702, "Longitude": 121.085296, "State": "California"}, {"Sort": 222, "StateAbbr": "CA", "FIPS": 6071, "County": "San Bernardino", "CountySeat(s)": "San Bernardino", "pop": 2035210.0, "LandAreakm2": 51947.23, "LandAreami2": 20056.938, "WaterAreakm2": 124.028, "WaterAreami2": 47.888, "TotalAreakm2": 52071.258, "TotalAreami2": 20104.826, "Latitude": 34.85722, "Longitude": 116.181197, "State": "California"}, {"Sort": 223, "StateAbbr": "CA", "FIPS": 6073, "County": "San Diego", "CountySeat(s)": "San Diego", "pop": 3095313.0, "LandAreakm2": 10895.121, "LandAreami2": 4206.63, "WaterAreakm2": 826.348, "WaterAreami2": 319.055, "TotalAreakm2": 11721.469, "TotalAreami2": 4525.685, "Latitude": 33.023604, "Longitude": 116.776117, "State": "California"}, {"Sort": 224, "StateAbbr": "CA", "FIPS": 6075, "County": "San Francisco", "CountySeat(s)": "San Francisco", "pop": 805235.0, "LandAreakm2": 121.4, "LandAreami2": 46.873, "WaterAreakm2": 479.19, "WaterAreami2": 185.016, "TotalAreakm2": 600.59, "TotalAreami2": 231.889, "Latitude": 37.727239000000004, "Longitude": 123.032229, "State": "California"}, {"Sort": 225, "StateAbbr": "CA", "FIPS": 6077, "County": "San Joaquin", "CountySeat(s)": "Stockton", "pop": 685306.0, "LandAreakm2": 3603.506, "LandAreami2": 1391.322, "WaterAreakm2": 91.109, "WaterAreami2": 35.177, "TotalAreakm2": 3694.615, "TotalAreami2": 1426.499, "Latitude": 37.935034, "Longitude": 121.27223700000002, "State": "California"}, {"Sort": 226, "StateAbbr": "CA", "FIPS": 6079, "County": "San Luis Obispo", "CountySeat(s)": "San Luis Obispo", "pop": 269637.0, "LandAreakm2": 8543.248, "LandAreami2": 3298.567, "WaterAreakm2": 820.975, "WaterAreami2": 316.98, "TotalAreakm2": 9364.223, "TotalAreami2": 3615.547, "Latitude": 35.385227, "Longitude": 120.44753999999999, "State": "California"}, {"Sort": 227, "StateAbbr": "CA", "FIPS": 6081, "County": "San Mateo", "CountySeat(s)": "Redwood City", "pop": 718451.0, "LandAreakm2": 1161.372, "LandAreami2": 448.408, "WaterAreakm2": 757.704, "WaterAreami2": 292.551, "TotalAreakm2": 1919.076, "TotalAreami2": 740.959, "Latitude": 37.414664, "Longitude": 122.37154199999999, "State": "California"}, {"Sort": 228, "StateAbbr": "CA", "FIPS": 6083, "County": "Santa Barbara", "CountySeat(s)": "Santa Barbara", "pop": 423895.0, "LandAreakm2": 7083.838, "LandAreami2": 2735.085, "WaterAreakm2": 2729.829, "WaterAreami2": 1053.993, "TotalAreakm2": 9813.667, "TotalAreami2": 3789.078, "Latitude": 34.537378000000004, "Longitude": 120.03848500000001, "State": "California"}, {"Sort": 229, "StateAbbr": "CA", "FIPS": 6085, "County": "Santa Clara", "CountySeat(s)": "San Jose", "pop": 1781642.0, "LandAreakm2": 3341.343, "LandAreami2": 1290.1, "WaterAreakm2": 36.175, "WaterAreami2": 13.967, "TotalAreakm2": 3377.518, "TotalAreami2": 1304.067, "Latitude": 37.220777000000005, "Longitude": 121.69062199999999, "State": "California"}, {"Sort": 230, "StateAbbr": "CA", "FIPS": 6087, "County": "Santa Cruz", "CountySeat(s)": "Santa Cruz", "pop": 262382.0, "LandAreakm2": 1152.986, "LandAreami2": 445.17, "WaterAreakm2": 419.569, "WaterAreami2": 161.996, "TotalAreakm2": 1572.555, "TotalAreami2": 607.166, "Latitude": 37.012488, "Longitude": 122.007205, "State": "California"}, {"Sort": 231, "StateAbbr": "CA", "FIPS": 6089, "County": "Shasta", "CountySeat(s)": "Redding", "pop": 177223.0, "LandAreakm2": 9778.247, "LandAreami2": 3775.402, "WaterAreakm2": 186.531, "WaterAreami2": 72.02, "TotalAreakm2": 9964.778, "TotalAreami2": 3847.422, "Latitude": 40.760521999999995, "Longitude": 122.04355, "State": "California"}, {"Sort": 232, "StateAbbr": "CA", "FIPS": 6091, "County": "Sierra", "CountySeat(s)": "Downieville", "pop": 3240.0, "LandAreakm2": 2468.814, "LandAreami2": 953.214, "WaterAreakm2": 23.299, "WaterAreami2": 8.996, "TotalAreakm2": 2492.113, "TotalAreami2": 962.21, "Latitude": 39.576925, "Longitude": 120.521993, "State": "California"}, {"Sort": 233, "StateAbbr": "CA", "FIPS": 6093, "County": "Siskiyou", "CountySeat(s)": "Yreka", "pop": 44900.0, "LandAreakm2": 16259.652, "LandAreami2": 6277.887, "WaterAreakm2": 179.889, "WaterAreami2": 69.456, "TotalAreakm2": 16439.542, "TotalAreami2": 6347.343, "Latitude": 41.587986, "Longitude": 122.53328700000002, "State": "California"}, {"Sort": 234, "StateAbbr": "CA", "FIPS": 6095, "County": "Solano", "CountySeat(s)": "Fairfield", "pop": 413344.0, "LandAreakm2": 2128.361, "LandAreami2": 821.765, "WaterAreakm2": 218.666, "WaterAreami2": 84.427, "TotalAreakm2": 2347.027, "TotalAreami2": 906.192, "Latitude": 38.267226, "Longitude": 121.939594, "State": "California"}, {"Sort": 235, "StateAbbr": "CA", "FIPS": 6097, "County": "Sonoma", "CountySeat(s)": "Santa Rosa", "pop": 483878.0, "LandAreakm2": 4081.43, "LandAreami2": 1575.849, "WaterAreakm2": 497.53, "WaterAreami2": 192.098, "TotalAreakm2": 4578.96, "TotalAreami2": 1767.947, "Latitude": 38.532574, "Longitude": 122.945194, "State": "California"}, {"Sort": 236, "StateAbbr": "CA", "FIPS": 6099, "County": "Stanislaus", "CountySeat(s)": "Modesto", "pop": 514453.0, "LandAreakm2": 3871.583, "LandAreami2": 1494.827, "WaterAreakm2": 51.437, "WaterAreami2": 19.86, "TotalAreakm2": 3923.02, "TotalAreami2": 1514.687, "Latitude": 37.562384, "Longitude": 121.002656, "State": "California"}, {"Sort": 237, "StateAbbr": "CA", "FIPS": 6101, "County": "Sutter", "CountySeat(s)": "Yuba City", "pop": 94737.0, "LandAreakm2": 1560.236, "LandAreami2": 602.41, "WaterAreakm2": 15.747, "WaterAreami2": 6.08, "TotalAreakm2": 1575.983, "TotalAreami2": 608.49, "Latitude": 39.035257, "Longitude": 121.702758, "State": "California"}, {"Sort": 238, "StateAbbr": "CA", "FIPS": 6103, "County": "Tehama", "CountySeat(s)": "Red Bluff", "pop": 63463.0, "LandAreakm2": 7639.71, "LandAreami2": 2949.709, "WaterAreakm2": 32.276, "WaterAreami2": 12.462, "TotalAreakm2": 7671.986, "TotalAreami2": 2962.171, "Latitude": 40.126156, "Longitude": 122.232276, "State": "California"}, {"Sort": 239, "StateAbbr": "CA", "FIPS": 6105, "County": "Trinity", "CountySeat(s)": "Weaverville", "pop": 13786.0, "LandAreakm2": 8234.23, "LandAreami2": 3179.254, "WaterAreakm2": 73.408, "WaterAreami2": 28.343, "TotalAreakm2": 8307.638, "TotalAreami2": 3207.597, "Latitude": 40.647724, "Longitude": 123.11440400000001, "State": "California"}, {"Sort": 240, "StateAbbr": "CA", "FIPS": 6107, "County": "Tulare", "CountySeat(s)": "Visalia", "pop": 442179.0, "LandAreakm2": 12494.658, "LandAreami2": 4824.215, "WaterAreakm2": 37.392, "WaterAreami2": 14.437, "TotalAreakm2": 12532.05, "TotalAreami2": 4838.652, "Latitude": 36.230453000000004, "Longitude": 118.780542, "State": "California"}, {"Sort": 241, "StateAbbr": "CA", "FIPS": 6109, "County": "Tuolumne", "CountySeat(s)": "Sonora", "pop": 55365.0, "LandAreakm2": 5752.063, "LandAreami2": 2220.884, "WaterAreakm2": 138.684, "WaterAreami2": 53.546, "TotalAreakm2": 5890.746, "TotalAreami2": 2274.43, "Latitude": 38.021451, "Longitude": 119.964708, "State": "California"}, {"Sort": 242, "StateAbbr": "CA", "FIPS": 6111, "County": "Ventura", "CountySeat(s)": "Ventura", "pop": 823318.0, "LandAreakm2": 4773.692, "LandAreami2": 1843.133, "WaterAreakm2": 945.992, "WaterAreami2": 365.249, "TotalAreakm2": 5719.684, "TotalAreami2": 2208.382, "Latitude": 34.358742, "Longitude": 119.13314299999999, "State": "California"}, {"Sort": 243, "StateAbbr": "CA", "FIPS": 6113, "County": "Yolo", "CountySeat(s)": "Woodland", "pop": 200849.0, "LandAreakm2": 2628.032, "LandAreami2": 1014.689, "WaterAreakm2": 22.969, "WaterAreami2": 8.868, "TotalAreakm2": 2651.002, "TotalAreami2": 1023.557, "Latitude": 38.679268, "Longitude": 121.903178, "State": "California"}, {"Sort": 244, "StateAbbr": "CA", "FIPS": 6115, "County": "Yuba", "CountySeat(s)": "Marysville", "pop": 72155.0, "LandAreakm2": 1636.454, "LandAreami2": 631.839, "WaterAreakm2": 30.999, "WaterAreami2": 11.969, "TotalAreakm2": 1667.453, "TotalAreami2": 643.808, "Latitude": 39.270026, "Longitude": 121.34428, "State": "California"}, {"Sort": 245, "StateAbbr": "CO", "FIPS": 8001, "County": "Adams", "CountySeat(s)": "Brighton", "pop": 441603.0, "LandAreakm2": 3024.208, "LandAreami2": 1167.653, "WaterAreakm2": 42.07, "WaterAreami2": 16.243, "TotalAreakm2": 3066.278, "TotalAreami2": 1183.896, "Latitude": 39.874325, "Longitude": 104.331872, "State": "Colorado"}, {"Sort": 246, "StateAbbr": "CO", "FIPS": 8003, "County": "Alamosa", "CountySeat(s)": "Alamosa", "pop": 15445.0, "LandAreakm2": 1871.637, "LandAreami2": 722.643, "WaterAreakm2": 1.808, "WaterAreami2": 0.698, "TotalAreakm2": 1873.445, "TotalAreami2": 723.341, "Latitude": 37.568442, "Longitude": 105.78804099999999, "State": "Colorado"}, {"Sort": 247, "StateAbbr": "CO", "FIPS": 8005, "County": "Arapahoe", "CountySeat(s)": "Littleton", "pop": 572003.0, "LandAreakm2": 2067.07, "LandAreami2": 798.1, "WaterAreakm2": 19.004, "WaterAreami2": 7.337, "TotalAreakm2": 2086.074, "TotalAreami2": 805.437, "Latitude": 39.644632, "Longitude": 104.331733, "State": "Colorado"}, {"Sort": 248, "StateAbbr": "CO", "FIPS": 8007, "County": "Archuleta", "CountySeat(s)": "Pagosa Springs", "pop": 12084.0, "LandAreakm2": 3496.938, "LandAreami2": 1350.175, "WaterAreakm2": 13.828, "WaterAreami2": 5.339, "TotalAreakm2": 3510.765, "TotalAreami2": 1355.514, "Latitude": 37.202395, "Longitude": 107.05086299999999, "State": "Colorado"}, {"Sort": 249, "StateAbbr": "CO", "FIPS": 8009, "County": "Baca", "CountySeat(s)": "Springfield", "pop": 3788.0, "LandAreakm2": 6617.334, "LandAreami2": 2554.967, "WaterAreakm2": 6.142, "WaterAreami2": 2.372, "TotalAreakm2": 6623.476, "TotalAreami2": 2557.339, "Latitude": 37.303144, "Longitude": 102.535457, "State": "Colorado"}, {"Sort": 250, "StateAbbr": "CO", "FIPS": 8011, "County": "Bent", "CountySeat(s)": "Las Animas", "pop": 6499.0, "LandAreakm2": 3918.292, "LandAreami2": 1512.861, "WaterAreakm2": 73.094, "WaterAreami2": 28.222, "TotalAreakm2": 3991.386, "TotalAreami2": 1541.083, "Latitude": 37.931891, "Longitude": 103.077584, "State": "Colorado"}, {"Sort": 251, "StateAbbr": "CO", "FIPS": 8013, "County": "Boulder", "CountySeat(s)": "Boulder", "pop": 294567.0, "LandAreakm2": 1881.08, "LandAreami2": 726.289, "WaterAreakm2": 36.469, "WaterAreami2": 14.081, "TotalAreakm2": 1917.549, "TotalAreami2": 740.37, "Latitude": 40.094826, "Longitude": 105.39838200000001, "State": "Colorado"}, {"Sort": 252, "StateAbbr": "CO", "FIPS": 8014, "County": "Broomfield", "CountySeat(s)": "Broomfield", "pop": 55889.0, "LandAreakm2": 85.558, "LandAreami2": 33.034, "WaterAreakm2": 1.466, "WaterAreami2": 0.566, "TotalAreakm2": 87.024, "TotalAreami2": 33.6, "Latitude": 39.953383, "Longitude": 105.052125, "State": "Colorado"}, {"Sort": 253, "StateAbbr": "CO", "FIPS": 8015, "County": "Chaffee", "CountySeat(s)": "Salida", "pop": 17809.0, "LandAreakm2": 2624.702, "LandAreami2": 1013.403, "WaterAreakm2": 4.013, "WaterAreami2": 1.55, "TotalAreakm2": 2628.716, "TotalAreami2": 1014.953, "Latitude": 38.738246000000004, "Longitude": 106.31697199999999, "State": "Colorado"}, {"Sort": 254, "StateAbbr": "CO", "FIPS": 8017, "County": "Cheyenne", "CountySeat(s)": "Cheyenne Wells", "pop": 1836.0, "LandAreakm2": 4605.713, "LandAreami2": 1778.276, "WaterAreakm2": 8.166, "WaterAreami2": 3.153, "TotalAreakm2": 4613.879, "TotalAreami2": 1781.429, "Latitude": 38.835387, "Longitude": 102.604585, "State": "Colorado"}, {"Sort": 255, "StateAbbr": "CO", "FIPS": 8019, "County": "Clear Creek", "CountySeat(s)": "Georgetown", "pop": 9088.0, "LandAreakm2": 1023.633, "LandAreami2": 395.227, "WaterAreakm2": 3.28, "WaterAreami2": 1.266, "TotalAreakm2": 1026.913, "TotalAreami2": 396.493, "Latitude": 39.689403000000006, "Longitude": 105.670791, "State": "Colorado"}, {"Sort": 256, "StateAbbr": "CO", "FIPS": 8021, "County": "Conejos", "CountySeat(s)": "Conejos", "pop": 8256.0, "LandAreakm2": 3334.326, "LandAreami2": 1287.391, "WaterAreakm2": 9.235, "WaterAreami2": 3.566, "TotalAreakm2": 3343.561, "TotalAreami2": 1290.957, "Latitude": 37.213407000000004, "Longitude": 106.176447, "State": "Colorado"}, {"Sort": 257, "StateAbbr": "CO", "FIPS": 8023, "County": "Costilla", "CountySeat(s)": "San Luis", "pop": 3524.0, "LandAreakm2": 3177.79, "LandAreami2": 1226.952, "WaterAreakm2": 8.829, "WaterAreami2": 3.409, "TotalAreakm2": 3186.619, "TotalAreami2": 1230.361, "Latitude": 37.277547, "Longitude": 105.42894, "State": "Colorado"}, {"Sort": 258, "StateAbbr": "CO", "FIPS": 8025, "County": "Crowley", "CountySeat(s)": "Ordway", "pop": 5823.0, "LandAreakm2": 2039.411, "LandAreami2": 787.421, "WaterAreakm2": 33.43, "WaterAreami2": 12.908, "TotalAreakm2": 2072.842, "TotalAreami2": 800.329, "Latitude": 38.321956, "Longitude": 103.787562, "State": "Colorado"}, {"Sort": 259, "StateAbbr": "CO", "FIPS": 8027, "County": "Custer", "CountySeat(s)": "Westcliffe", "pop": 4255.0, "LandAreakm2": 1913.031, "LandAreami2": 738.625, "WaterAreakm2": 3.365, "WaterAreami2": 1.299, "TotalAreakm2": 1916.396, "TotalAreami2": 739.924, "Latitude": 38.101994, "Longitude": 105.373515, "State": "Colorado"}, {"Sort": 260, "StateAbbr": "CO", "FIPS": 8029, "County": "Delta", "CountySeat(s)": "Delta", "pop": 30952.0, "LandAreakm2": 2957.897, "LandAreami2": 1142.05, "WaterAreakm2": 16.961, "WaterAreami2": 6.549, "TotalAreakm2": 2974.858, "TotalAreami2": 1148.599, "Latitude": 38.861756, "Longitude": 107.86475700000001, "State": "Colorado"}, {"Sort": 261, "StateAbbr": "CO", "FIPS": 8031, "County": "Denver", "CountySeat(s)": "Denver", "pop": 600158.0, "LandAreakm2": 396.269, "LandAreami2": 153.0, "WaterAreakm2": 4.225, "WaterAreami2": 1.631, "TotalAreakm2": 400.494, "TotalAreami2": 154.631, "Latitude": 39.761849, "Longitude": 104.880625, "State": "Colorado"}, {"Sort": 262, "StateAbbr": "CO", "FIPS": 8033, "County": "Dolores", "CountySeat(s)": "Dove Creek", "pop": 2064.0, "LandAreakm2": 2763.65, "LandAreami2": 1067.051, "WaterAreakm2": 2.716, "WaterAreami2": 1.049, "TotalAreakm2": 2766.366, "TotalAreami2": 1068.1, "Latitude": 37.747602, "Longitude": 108.530383, "State": "Colorado"}, {"Sort": 263, "StateAbbr": "CO", "FIPS": 8035, "County": "Douglas", "CountySeat(s)": "Castle Rock", "pop": 285465.0, "LandAreakm2": 2176.232, "LandAreami2": 840.248, "WaterAreakm2": 6.789, "WaterAreami2": 2.621, "TotalAreakm2": 2183.022, "TotalAreami2": 842.869, "Latitude": 39.326435, "Longitude": 104.926199, "State": "Colorado"}, {"Sort": 264, "StateAbbr": "CO", "FIPS": 8037, "County": "Eagle", "CountySeat(s)": "Eagle", "pop": 52197.0, "LandAreakm2": 4362.912, "LandAreami2": 1684.53, "WaterAreakm2": 18.806, "WaterAreami2": 7.261, "TotalAreakm2": 4381.718, "TotalAreami2": 1691.791, "Latitude": 39.630638, "Longitude": 106.692944, "State": "Colorado"}, {"Sort": 265, "StateAbbr": "CO", "FIPS": 8039, "County": "Elbert", "CountySeat(s)": "Colorado Springs", "pop": 23086.0, "LandAreakm2": 4793.671, "LandAreami2": 1850.847, "WaterAreakm2": 0.442, "WaterAreami2": 0.171, "TotalAreakm2": 4794.113, "TotalAreami2": 1851.018, "Latitude": 39.310817, "Longitude": 104.117928, "State": "Colorado"}, {"Sort": 266, "StateAbbr": "CO", "FIPS": 8041, "County": "El Paso", "CountySeat(s)": "Kiowa", "pop": 622263.0, "LandAreakm2": 5508.39, "LandAreami2": 2126.801, "WaterAreakm2": 7.112, "WaterAreami2": 2.746, "TotalAreakm2": 5515.501, "TotalAreami2": 2129.547, "Latitude": 38.827383000000005, "Longitude": 104.527472, "State": "Colorado"}, {"Sort": 267, "StateAbbr": "CO", "FIPS": 8043, "County": "Fremont", "CountySeat(s)": "Ca\u00f1on City", "pop": 46824.0, "LandAreakm2": 3970.627, "LandAreami2": 1533.068, "WaterAreakm2": 2.235, "WaterAreami2": 0.863, "TotalAreakm2": 3972.863, "TotalAreami2": 1533.931, "Latitude": 38.455658, "Longitude": 105.421438, "State": "Colorado"}, {"Sort": 268, "StateAbbr": "CO", "FIPS": 8045, "County": "Garfield", "CountySeat(s)": "Glenwood Springs", "pop": 56389.0, "LandAreakm2": 7634.154, "LandAreami2": 2947.563, "WaterAreakm2": 21.431, "WaterAreami2": 8.274, "TotalAreakm2": 7655.584, "TotalAreami2": 2955.837, "Latitude": 39.599352, "Longitude": 107.90978, "State": "Colorado"}, {"Sort": 269, "StateAbbr": "CO", "FIPS": 8047, "County": "Gilpin", "CountySeat(s)": "Central City", "pop": 5441.0, "LandAreakm2": 388.229, "LandAreami2": 149.896, "WaterAreakm2": 0.942, "WaterAreami2": 0.364, "TotalAreakm2": 389.171, "TotalAreami2": 150.26, "Latitude": 39.861082, "Longitude": 105.528947, "State": "Colorado"}, {"Sort": 270, "StateAbbr": "CO", "FIPS": 8049, "County": "Grand", "CountySeat(s)": "Hot Sulphur Springs", "pop": 14843.0, "LandAreakm2": 4781.972, "LandAreami2": 1846.33, "WaterAreakm2": 60.25, "WaterAreami2": 23.263, "TotalAreakm2": 4842.222, "TotalAreami2": 1869.593, "Latitude": 40.123289, "Longitude": 106.095876, "State": "Colorado"}, {"Sort": 271, "StateAbbr": "CO", "FIPS": 8051, "County": "Gunnison", "CountySeat(s)": "Gunnison", "pop": 15324.0, "LandAreakm2": 8389.229, "LandAreami2": 3239.1, "WaterAreakm2": 53.172, "WaterAreami2": 20.53, "TotalAreakm2": 8442.401, "TotalAreami2": 3259.63, "Latitude": 38.669678999999995, "Longitude": 107.07810800000001, "State": "Colorado"}, {"Sort": 272, "StateAbbr": "CO", "FIPS": 8053, "County": "Hinsdale", "CountySeat(s)": "Lake City", "pop": 843.0, "LandAreakm2": 2893.668, "LandAreami2": 1117.251, "WaterAreakm2": 15.325, "WaterAreami2": 5.917, "TotalAreakm2": 2908.992, "TotalAreami2": 1123.168, "Latitude": 37.811625, "Longitude": 107.38340500000001, "State": "Colorado"}, {"Sort": 273, "StateAbbr": "CO", "FIPS": 8055, "County": "Huerfano", "CountySeat(s)": "Walsenburg", "pop": 6711.0, "LandAreakm2": 4120.673, "LandAreami2": 1591.001, "WaterAreakm2": 5.792, "WaterAreami2": 2.236, "TotalAreakm2": 4126.465, "TotalAreami2": 1593.237, "Latitude": 37.687815, "Longitude": 104.959928, "State": "Colorado"}, {"Sort": 274, "StateAbbr": "CO", "FIPS": 8057, "County": "Jackson", "CountySeat(s)": "Walden", "pop": 1394.0, "LandAreakm2": 4179.523, "LandAreami2": 1613.723, "WaterAreakm2": 18.75, "WaterAreami2": 7.239, "TotalAreakm2": 4198.273, "TotalAreami2": 1620.962, "Latitude": 40.663432, "Longitude": 106.32924799999999, "State": "Colorado"}, {"Sort": 275, "StateAbbr": "CO", "FIPS": 8059, "County": "Jefferson", "CountySeat(s)": "Golden", "pop": 534543.0, "LandAreakm2": 1979.29, "LandAreami2": 764.208, "WaterAreakm2": 25.446, "WaterAreami2": 9.825, "TotalAreakm2": 2004.736, "TotalAreami2": 774.033, "Latitude": 39.586459999999995, "Longitude": 105.24560100000001, "State": "Colorado"}, {"Sort": 276, "StateAbbr": "CO", "FIPS": 8061, "County": "Kiowa", "CountySeat(s)": "Eads", "pop": 1398.0, "LandAreakm2": 4578.496, "LandAreami2": 1767.767, "WaterAreakm2": 47.033, "WaterAreami2": 18.16, "TotalAreakm2": 4625.529, "TotalAreami2": 1785.927, "Latitude": 38.388465999999994, "Longitude": 102.75621, "State": "Colorado"}, {"Sort": 277, "StateAbbr": "CO", "FIPS": 8063, "County": "Kit Carson", "CountySeat(s)": "Burlington", "pop": 8270.0, "LandAreakm2": 5596.502, "LandAreami2": 2160.822, "WaterAreakm2": 2.252, "WaterAreami2": 0.869, "TotalAreakm2": 5598.754, "TotalAreami2": 2161.691, "Latitude": 39.30534, "Longitude": 102.603023, "State": "Colorado"}, {"Sort": 278, "StateAbbr": "CO", "FIPS": 8065, "County": "Lake", "CountySeat(s)": "Durango", "pop": 7310.0, "LandAreakm2": 976.194, "LandAreami2": 376.911, "WaterAreakm2": 18.124, "WaterAreami2": 6.998, "TotalAreakm2": 994.319, "TotalAreami2": 383.909, "Latitude": 39.204316, "Longitude": 106.349696, "State": "Colorado"}, {"Sort": 279, "StateAbbr": "CO", "FIPS": 8067, "County": "La Plata", "CountySeat(s)": "Leadville", "pop": 51334.0, "LandAreakm2": 4382.463, "LandAreami2": 1692.078, "WaterAreakm2": 19.76, "WaterAreami2": 7.629, "TotalAreakm2": 4402.223, "TotalAreami2": 1699.707, "Latitude": 37.287366999999996, "Longitude": 107.83971799999999, "State": "Colorado"}, {"Sort": 280, "StateAbbr": "CO", "FIPS": 8069, "County": "Larimer", "CountySeat(s)": "Fort Collins", "pop": 299630.0, "LandAreakm2": 6723.613, "LandAreami2": 2596.002, "WaterAreakm2": 98.295, "WaterAreami2": 37.952, "TotalAreakm2": 6821.909, "TotalAreami2": 2633.954, "Latitude": 40.663090999999994, "Longitude": 105.48213100000001, "State": "Colorado"}, {"Sort": 281, "StateAbbr": "CO", "FIPS": 8071, "County": "Las Animas", "CountySeat(s)": "Trinidad", "pop": 15507.0, "LandAreakm2": 12361.162, "LandAreami2": 4772.672, "WaterAreakm2": 6.93, "WaterAreami2": 2.676, "TotalAreakm2": 12368.092, "TotalAreami2": 4775.348, "Latitude": 37.318831, "Longitude": 104.04411, "State": "Colorado"}, {"Sort": 282, "StateAbbr": "CO", "FIPS": 8073, "County": "Lincoln", "CountySeat(s)": "Hugo", "pop": 5467.0, "LandAreakm2": 6676.021, "LandAreami2": 2577.626, "WaterAreakm2": 22.781, "WaterAreami2": 8.796, "TotalAreakm2": 6698.802, "TotalAreami2": 2586.422, "Latitude": 38.99374, "Longitude": 103.50755500000001, "State": "Colorado"}, {"Sort": 283, "StateAbbr": "CO", "FIPS": 8075, "County": "Logan", "CountySeat(s)": "Sterling", "pop": 22709.0, "LandAreakm2": 4761.813, "LandAreami2": 1838.547, "WaterAreakm2": 16.364, "WaterAreami2": 6.318, "TotalAreakm2": 4778.177, "TotalAreami2": 1844.865, "Latitude": 40.728091, "Longitude": 103.090464, "State": "Colorado"}, {"Sort": 284, "StateAbbr": "CO", "FIPS": 8077, "County": "Mesa", "CountySeat(s)": "Grand Junction", "pop": 146723.0, "LandAreakm2": 8622.003, "LandAreami2": 3328.974, "WaterAreakm2": 31.467, "WaterAreami2": 12.149, "TotalAreakm2": 8653.47, "TotalAreami2": 3341.123, "Latitude": 39.019492, "Longitude": 108.46183700000002, "State": "Colorado"}, {"Sort": 285, "StateAbbr": "CO", "FIPS": 8079, "County": "Mineral", "CountySeat(s)": "Creede", "pop": 712.0, "LandAreakm2": 2267.966, "LandAreami2": 875.666, "WaterAreakm2": 5.222, "WaterAreami2": 2.016, "TotalAreakm2": 2273.188, "TotalAreami2": 877.682, "Latitude": 37.651478000000004, "Longitude": 106.9323, "State": "Colorado"}, {"Sort": 286, "StateAbbr": "CO", "FIPS": 8081, "County": "Moffat", "CountySeat(s)": "Craig", "pop": 13795.0, "LandAreakm2": 12285.065, "LandAreami2": 4743.29, "WaterAreakm2": 19.742, "WaterAreami2": 7.622, "TotalAreakm2": 12304.807, "TotalAreami2": 4750.912, "Latitude": 40.573984, "Longitude": 108.204521, "State": "Colorado"}, {"Sort": 287, "StateAbbr": "CO", "FIPS": 8083, "County": "Montezuma", "CountySeat(s)": "Cortez", "pop": 25535.0, "LandAreakm2": 5256.451, "LandAreami2": 2029.527, "WaterAreakm2": 27.517, "WaterAreami2": 10.624, "TotalAreakm2": 5283.968, "TotalAreami2": 2040.151, "Latitude": 37.338025, "Longitude": 108.595786, "State": "Colorado"}, {"Sort": 288, "StateAbbr": "CO", "FIPS": 8085, "County": "Montrose", "CountySeat(s)": "Montrose", "pop": 41276.0, "LandAreakm2": 5803.373, "LandAreami2": 2240.695, "WaterAreakm2": 4.923, "WaterAreami2": 1.901, "TotalAreakm2": 5808.296, "TotalAreami2": 2242.596, "Latitude": 38.413427, "Longitude": 108.263042, "State": "Colorado"}, {"Sort": 289, "StateAbbr": "CO", "FIPS": 8087, "County": "Morgan", "CountySeat(s)": "Fort Morgan", "pop": 28159.0, "LandAreakm2": 3316.305, "LandAreami2": 1280.433, "WaterAreakm2": 34.474, "WaterAreami2": 13.31, "TotalAreakm2": 3350.779, "TotalAreami2": 1293.743, "Latitude": 40.262353999999995, "Longitude": 103.807092, "State": "Colorado"}, {"Sort": 290, "StateAbbr": "CO", "FIPS": 8089, "County": "Otero", "CountySeat(s)": "La Junta", "pop": 18831.0, "LandAreakm2": 3268.465, "LandAreami2": 1261.961, "WaterAreakm2": 20.052, "WaterAreami2": 7.742, "TotalAreakm2": 3288.518, "TotalAreami2": 1269.703, "Latitude": 37.884170000000005, "Longitude": 103.72126, "State": "Colorado"}, {"Sort": 291, "StateAbbr": "CO", "FIPS": 8091, "County": "Ouray", "CountySeat(s)": "Ouray", "pop": 4436.0, "LandAreakm2": 1402.719, "LandAreami2": 541.593, "WaterAreakm2": 1.6, "WaterAreami2": 0.618, "TotalAreakm2": 1404.318, "TotalAreami2": 542.211, "Latitude": 38.1506, "Longitude": 107.767133, "State": "Colorado"}, {"Sort": 292, "StateAbbr": "CO", "FIPS": 8093, "County": "Park", "CountySeat(s)": "Fairplay", "pop": 16206.0, "LandAreakm2": 5682.034, "LandAreami2": 2193.846, "WaterAreakm2": 43.531, "WaterAreami2": 16.807, "TotalAreakm2": 5725.565, "TotalAreami2": 2210.653, "Latitude": 39.118914000000004, "Longitude": 105.717648, "State": "Colorado"}, {"Sort": 293, "StateAbbr": "CO", "FIPS": 8095, "County": "Phillips", "CountySeat(s)": "Holyoke", "pop": 4442.0, "LandAreakm2": 1781.725, "LandAreami2": 687.928, "WaterAreakm2": 0.302, "WaterAreami2": 0.117, "TotalAreakm2": 1782.027, "TotalAreami2": 688.045, "Latitude": 40.594712, "Longitude": 102.345105, "State": "Colorado"}, {"Sort": 294, "StateAbbr": "CO", "FIPS": 8097, "County": "Pitkin", "CountySeat(s)": "Aspen", "pop": 17148.0, "LandAreakm2": 2514.094, "LandAreami2": 970.697, "WaterAreakm2": 6.469, "WaterAreami2": 2.498, "TotalAreakm2": 2520.564, "TotalAreami2": 973.195, "Latitude": 39.217533, "Longitude": 106.915943, "State": "Colorado"}, {"Sort": 295, "StateAbbr": "CO", "FIPS": 8099, "County": "Prowers", "CountySeat(s)": "Lamar", "pop": 12551.0, "LandAreakm2": 4243.422, "LandAreami2": 1638.395, "WaterAreakm2": 15.353, "WaterAreami2": 5.928, "TotalAreakm2": 4258.775, "TotalAreami2": 1644.323, "Latitude": 37.958181, "Longitude": 102.392161, "State": "Colorado"}, {"Sort": 296, "StateAbbr": "CO", "FIPS": 8101, "County": "Pueblo", "CountySeat(s)": "Pueblo", "pop": 159063.0, "LandAreakm2": 6179.981, "LandAreami2": 2386.104, "WaterAreakm2": 30.28, "WaterAreami2": 11.691, "TotalAreakm2": 6210.261, "TotalAreami2": 2397.795, "Latitude": 38.170658, "Longitude": 104.48989300000001, "State": "Colorado"}, {"Sort": 297, "StateAbbr": "CO", "FIPS": 8103, "County": "Rio Blanco", "CountySeat(s)": "Meeker", "pop": 6666.0, "LandAreakm2": 8342.179, "LandAreami2": 3220.934, "WaterAreakm2": 4.868, "WaterAreami2": 1.88, "TotalAreakm2": 8347.047, "TotalAreami2": 3222.814, "Latitude": 39.972606, "Longitude": 108.20068500000001, "State": "Colorado"},